[
    {
        "Did": 422823,
        "Parent_Did": 422800,
        "Name": "巴东县",
        "Short_Name": "巴东",
        "Longitude": 110.337,
        "Latitude": 31.0414,
        "Level": 3,
        "Sort": 1,
        "Status": 1,
        "Id": 25088
    },
    {
        "Did": 441901110,
        "Parent_Did": 441900,
        "Name": "常平镇",
        "Short_Name": "常平镇",
        "Longitude": 113.993,
        "Latitude": 22.9749,
        "Level": 3,
        "Sort": 1,
        "Status": 1,
        "Id": 29440
    },
    {
        "Did": 361181,
        "Parent_Did": 361100,
        "Name": "德兴市",
        "Short_Name": "德兴",
        "Longitude": 117.579,
        "Latitude": 28.945,
        "Level": 3,
        "Sort": 1,
        "Status": 1,
        "Id": 18945
    },
    {
        "Did": 469002500,
        "Parent_Did": 469002,
        "Name": "彬村山华侨农场",
        "Short_Name": "彬村山华侨农场",
        "Longitude": 110.467,
        "Latitude": 19.246,
        "Level": 3,
        "Sort": 1,
        "Status": 1,
        "Id": 31233
    },
    {
        "Did": 652901,
        "Parent_Did": 652900,
        "Name": "阿克苏市",
        "Short_Name": "阿克苏",
        "Longitude": 80.2629,
        "Latitude": 41.1713,
        "Level": 3,
        "Sort": 1,
        "Status": 1,
        "Id": 45057
    },
    {
        "Did": 450421,
        "Parent_Did": 450400,
        "Name": "苍梧县",
        "Short_Name": "苍梧",
        "Longitude": 111.544,
        "Latitude": 23.8451,
        "Level": 3,
        "Sort": 1,
        "Status": 1,
        "Id": 30210
    },
    {
        "Did": 610304,
        "Parent_Did": 610300,
        "Name": "陈仓区",
        "Short_Name": "陈仓",
        "Longitude": 107.384,
        "Latitude": 34.3527,
        "Level": 3,
        "Sort": 1,
        "Status": 1,
        "Id": 40962
    },
    {
        "Did": 530624,
        "Parent_Did": 530600,
        "Name": "大关县",
        "Short_Name": "大关",
        "Longitude": 103.892,
        "Latitude": 27.7471,
        "Level": 3,
        "Sort": 1,
        "Status": 1,
        "Id": 38915
    },
    {
        "Did": 370903,
        "Parent_Did": 370900,
        "Name": "岱岳区",
        "Short_Name": "岱岳",
        "Longitude": 117.044,
        "Latitude": 36.1841,
        "Level": 3,
        "Sort": 1,
        "Status": 1,
        "Id": 19972
    },
    {
        "Did": 542227,
        "Parent_Did": 542200,
        "Name": "措美县",
        "Short_Name": "措美",
        "Longitude": 91.4324,
        "Latitude": 28.4374,
        "Level": 3,
        "Sort": 1,
        "Status": 1,
        "Id": 40196
    },
    {
        "Did": 632324,
        "Parent_Did": 632300,
        "Name": "河南蒙古族自治县",
        "Short_Name": "河南",
        "Longitude": 101.612,
        "Latitude": 34.7345,
        "Level": 3,
        "Sort": 1,
        "Status": 1,
        "Id": 44036
    },
    {
        "Did": 640122,
        "Parent_Did": 640100,
        "Name": "贺兰县",
        "Short_Name": "贺兰",
        "Longitude": 106.346,
        "Latitude": 38.5546,
        "Level": 3,
        "Sort": 1,
        "Status": 1,
        "Id": 44292
    },
    {
        "Did": 360981,
        "Parent_Did": 360900,
        "Name": "丰城市",
        "Short_Name": "丰城",
        "Longitude": 115.786,
        "Latitude": 28.1916,
        "Level": 3,
        "Sort": 1,
        "Status": 1,
        "Id": 18437
    },
    {
        "Did": 320482,
        "Parent_Did": 320400,
        "Name": "金坛市",
        "Short_Name": "金坛",
        "Longitude": 119.573,
        "Latitude": 31.7444,
        "Level": 3,
        "Sort": 1,
        "Status": 1,
        "Id": 11526
    },
    {
        "Did": 430482,
        "Parent_Did": 430400,
        "Name": "常宁市",
        "Short_Name": "常宁",
        "Longitude": 112.397,
        "Latitude": 26.4068,
        "Level": 3,
        "Sort": 1,
        "Status": 1,
        "Id": 25863
    },
    {
        "Did": 511902,
        "Parent_Did": 511900,
        "Name": "巴州区",
        "Short_Name": "巴州",
        "Longitude": 106.754,
        "Latitude": 31.8584,
        "Level": 3,
        "Sort": 1,
        "Status": 1,
        "Id": 35591
    },
    {
        "Did": 653225,
        "Parent_Did": 653200,
        "Name": "策勒县",
        "Short_Name": "策勒",
        "Longitude": 80.8036,
        "Latitude": 37.0017,
        "Level": 3,
        "Sort": 1,
        "Status": 1,
        "Id": 45576
    },
    {
        "Did": 712125,
        "Parent_Did": 712100,
        "Name": "褒忠乡",
        "Short_Name": "褒忠",
        "Longitude": 121.509,
        "Latitude": 25.0443,
        "Level": 3,
        "Sort": 1,
        "Status": 1,
        "Id": 46344
    },
    {
        "Did": 341225,
        "Parent_Did": 341200,
        "Name": "阜南县",
        "Short_Name": "阜南",
        "Longitude": 115.591,
        "Latitude": 32.6381,
        "Level": 3,
        "Sort": 1,
        "Status": 1,
        "Id": 15115
    },
    {
        "Did": 632521,
        "Parent_Did": 632500,
        "Name": "共和县",
        "Short_Name": "共和",
        "Longitude": 100.62,
        "Latitude": 36.2803,
        "Level": 3,
        "Sort": 1,
        "Status": 1,
        "Id": 44043
    },
    {
        "Did": 330523,
        "Parent_Did": 330500,
        "Name": "安吉县",
        "Short_Name": "安吉",
        "Longitude": 119.688,
        "Latitude": 30.632,
        "Level": 3,
        "Sort": 1,
        "Status": 1,
        "Id": 13324
    },
    {
        "Did": 430721,
        "Parent_Did": 430700,
        "Name": "安乡县",
        "Short_Name": "安乡",
        "Longitude": 112.172,
        "Latitude": 29.4145,
        "Level": 3,
        "Sort": 1,
        "Status": 1,
        "Id": 26380
    },
    {
        "Did": 654221,
        "Parent_Did": 654200,
        "Name": "额敏县",
        "Short_Name": "额敏",
        "Longitude": 83.6221,
        "Latitude": 46.5226,
        "Level": 3,
        "Sort": 1,
        "Status": 1,
        "Id": 45836
    },
    {
        "Did": 440111,
        "Parent_Did": 440100,
        "Name": "白云区",
        "Short_Name": "白云",
        "Longitude": 113.263,
        "Latitude": 23.1623,
        "Level": 3,
        "Sort": 1,
        "Status": 1,
        "Id": 27917
    },
    {
        "Did": 440306,
        "Parent_Did": 440300,
        "Name": "宝安区",
        "Short_Name": "宝安",
        "Longitude": 113.829,
        "Latitude": 22.7547,
        "Level": 3,
        "Sort": 1,
        "Status": 1,
        "Id": 28173
    },
    {
        "Did": 210224,
        "Parent_Did": 210200,
        "Name": "长海县",
        "Short_Name": "长海",
        "Longitude": 122.588,
        "Latitude": 39.2724,
        "Level": 3,
        "Sort": 1,
        "Status": 1,
        "Id": 6414
    },
    {
        "Did": 469003112,
        "Parent_Did": 469003,
        "Name": "白马井镇",
        "Short_Name": "白马井镇",
        "Longitude": 109.227,
        "Latitude": 19.7076,
        "Level": 3,
        "Sort": 1,
        "Status": 1,
        "Id": 31247
    },
    {
        "Did": 410421,
        "Parent_Did": 410400,
        "Name": "宝丰县",
        "Short_Name": "宝丰",
        "Longitude": 113.067,
        "Latitude": 33.8664,
        "Level": 3,
        "Sort": 1,
        "Status": 1,
        "Id": 21521
    },
    {
        "Did": 620924,
        "Parent_Did": 620900,
        "Name": "阿克塞哈萨克族自治县",
        "Short_Name": "阿克塞",
        "Longitude": 94.3376,
        "Latitude": 39.6316,
        "Level": 3,
        "Sort": 1,
        "Status": 1,
        "Id": 43026
    },
    {
        "Did": 120115,
        "Parent_Did": 120100,
        "Name": "宝坻区",
        "Short_Name": "宝坻",
        "Longitude": 117.308,
        "Latitude": 39.717,
        "Level": 3,
        "Sort": 1,
        "Status": 1,
        "Id": 531
    },
    {
        "Did": 230921,
        "Parent_Did": 230900,
        "Name": "勃利县",
        "Short_Name": "勃利",
        "Longitude": 130.575,
        "Latitude": 45.7516,
        "Level": 3,
        "Sort": 1,
        "Status": 1,
        "Id": 10259
    },
    {
        "Did": 410602,
        "Parent_Did": 410600,
        "Name": "鹤山区",
        "Short_Name": "鹤山",
        "Longitude": 114.167,
        "Latitude": 35.9361,
        "Level": 3,
        "Sort": 1,
        "Status": 1,
        "Id": 21779
    },
    {
        "Did": 510402,
        "Parent_Did": 510400,
        "Name": "东区",
        "Short_Name": "东区",
        "Longitude": 101.715,
        "Latitude": 26.5809,
        "Level": 3,
        "Sort": 1,
        "Status": 1,
        "Id": 32790
    },
    {
        "Did": 330783,
        "Parent_Did": 330700,
        "Name": "东阳市",
        "Short_Name": "东阳",
        "Longitude": 120.233,
        "Latitude": 29.2625,
        "Level": 3,
        "Sort": 1,
        "Status": 1,
        "Id": 13591
    },
    {
        "Did": 445381,
        "Parent_Did": 445300,
        "Name": "罗定市",
        "Short_Name": "罗定",
        "Longitude": 111.578,
        "Latitude": 22.7654,
        "Level": 3,
        "Sort": 1,
        "Status": 1,
        "Id": 29719
    },
    {
        "Did": 140723,
        "Parent_Did": 140700,
        "Name": "和顺县",
        "Short_Name": "和顺",
        "Longitude": 113.573,
        "Latitude": 37.327,
        "Level": 3,
        "Sort": 1,
        "Status": 1,
        "Id": 3864
    },
    {
        "Did": 341721,
        "Parent_Did": 341700,
        "Name": "东至县",
        "Short_Name": "东至",
        "Longitude": 117.021,
        "Latitude": 30.0966,
        "Level": 3,
        "Sort": 1,
        "Status": 1,
        "Id": 15641
    },
    {
        "Did": 232721,
        "Parent_Did": 232700,
        "Name": "呼玛县",
        "Short_Name": "呼玛",
        "Longitude": 126.662,
        "Latitude": 51.727,
        "Level": 3,
        "Sort": 1,
        "Status": 1,
        "Id": 10778
    },
    {
        "Did": 510724,
        "Parent_Did": 510700,
        "Name": "安县",
        "Short_Name": "安县",
        "Longitude": 104.56,
        "Latitude": 31.5389,
        "Level": 3,
        "Sort": 1,
        "Status": 1,
        "Id": 33306
    },
    {
        "Did": 610111,
        "Parent_Did": 610100,
        "Name": "灞桥区",
        "Short_Name": "灞桥",
        "Longitude": 109.067,
        "Latitude": 34.2675,
        "Level": 3,
        "Sort": 1,
        "Status": 1,
        "Id": 40730
    },
    {
        "Did": 321322,
        "Parent_Did": 321300,
        "Name": "沭阳县",
        "Short_Name": "沭阳",
        "Longitude": 118.776,
        "Latitude": 34.1291,
        "Level": 3,
        "Sort": 1,
        "Status": 1,
        "Id": 12571
    },
    {
        "Did": 640202,
        "Parent_Did": 640200,
        "Name": "大武口区",
        "Short_Name": "大武口",
        "Longitude": 106.377,
        "Latitude": 39.0142,
        "Level": 3,
        "Sort": 1,
        "Status": 1,
        "Id": 44315
    },
    {
        "Did": 220202,
        "Parent_Did": 220200,
        "Name": "昌邑区",
        "Short_Name": "昌邑",
        "Longitude": 126.571,
        "Latitude": 43.8511,
        "Level": 3,
        "Sort": 1,
        "Status": 1,
        "Id": 7964
    },
    {
        "Did": 230606,
        "Parent_Did": 230600,
        "Name": "大同区",
        "Short_Name": "大同",
        "Longitude": 124.819,
        "Latitude": 46.0343,
        "Level": 3,
        "Sort": 1,
        "Status": 1,
        "Id": 9758
    },
    {
        "Did": 360123,
        "Parent_Did": 360100,
        "Name": "安义县",
        "Short_Name": "安义",
        "Longitude": 115.553,
        "Latitude": 28.8413,
        "Level": 3,
        "Sort": 1,
        "Status": 1,
        "Id": 17182
    },
    {
        "Did": 420704,
        "Parent_Did": 420700,
        "Name": "鄂城区",
        "Short_Name": "鄂城",
        "Longitude": 114.89,
        "Latitude": 30.3967,
        "Level": 3,
        "Sort": 1,
        "Status": 1,
        "Id": 24351
    },
    {
        "Did": 520381,
        "Parent_Did": 520300,
        "Name": "赤水市",
        "Short_Name": "赤水",
        "Longitude": 105.698,
        "Latitude": 28.5871,
        "Level": 3,
        "Sort": 1,
        "Status": 1,
        "Id": 37663
    },
    {
        "Did": 630105,
        "Parent_Did": 630100,
        "Name": "城北区",
        "Short_Name": "城北",
        "Longitude": 101.761,
        "Latitude": 36.6484,
        "Level": 3,
        "Sort": 1,
        "Status": 1,
        "Id": 43807
    },
    {
        "Did": 150206,
        "Parent_Did": 150200,
        "Name": "白云鄂博矿区",
        "Short_Name": "白云矿区",
        "Longitude": 109.97,
        "Latitude": 41.7692,
        "Level": 3,
        "Sort": 1,
        "Status": 1,
        "Id": 4896
    },
    {
        "Did": 712442,
        "Parent_Did": 712400,
        "Name": "长治乡",
        "Short_Name": "长治",
        "Longitude": 121.509,
        "Latitude": 25.0443,
        "Level": 3,
        "Sort": 1,
        "Status": 1,
        "Id": 46369
    },
    {
        "Did": 451102,
        "Parent_Did": 451100,
        "Name": "八步区",
        "Short_Name": "八步",
        "Longitude": 111.552,
        "Latitude": 24.4124,
        "Level": 3,
        "Sort": 1,
        "Status": 1,
        "Id": 30754
    },
    {
        "Did": 150822,
        "Parent_Did": 150800,
        "Name": "磴口县",
        "Short_Name": "磴口",
        "Longitude": 107.006,
        "Latitude": 40.3305,
        "Level": 3,
        "Sort": 1,
        "Status": 1,
        "Id": 5668
    },
    {
        "Did": 511524,
        "Parent_Did": 511500,
        "Name": "长宁县",
        "Short_Name": "长宁",
        "Longitude": 104.921,
        "Latitude": 28.5773,
        "Level": 3,
        "Sort": 1,
        "Status": 1,
        "Id": 34853
    },
    {
        "Did": 440785,
        "Parent_Did": 440700,
        "Name": "恩平市",
        "Short_Name": "恩平",
        "Longitude": 112.314,
        "Latitude": 22.183,
        "Level": 3,
        "Sort": 1,
        "Status": 1,
        "Id": 28454
    },
    {
        "Did": 532924,
        "Parent_Did": 532900,
        "Name": "宾川县",
        "Short_Name": "宾川",
        "Longitude": 100.579,
        "Latitude": 25.8259,
        "Level": 3,
        "Sort": 1,
        "Status": 1,
        "Id": 39718
    },
    {
        "Did": 469005112,
        "Parent_Did": 469005,
        "Name": "抱罗镇",
        "Short_Name": "抱罗镇",
        "Longitude": 110.749,
        "Latitude": 19.8435,
        "Level": 3,
        "Sort": 1,
        "Status": 1,
        "Id": 31271
    },
    {
        "Did": 513331,
        "Parent_Did": 513300,
        "Name": "白玉县",
        "Short_Name": "白玉",
        "Longitude": 98.8243,
        "Latitude": 31.2088,
        "Level": 3,
        "Sort": 1,
        "Status": 1,
        "Id": 36391
    },
    {
        "Did": 211002,
        "Parent_Did": 211000,
        "Name": "白塔区",
        "Short_Name": "白塔",
        "Longitude": 123.173,
        "Latitude": 41.2674,
        "Level": 3,
        "Sort": 1,
        "Status": 1,
        "Id": 7209
    },
    {
        "Did": 421022,
        "Parent_Did": 421000,
        "Name": "公安县",
        "Short_Name": "公安",
        "Longitude": 112.23,
        "Latitude": 30.0591,
        "Level": 3,
        "Sort": 1,
        "Status": 1,
        "Id": 24618
    },
    {
        "Did": 513231,
        "Parent_Did": 513200,
        "Name": "阿坝县",
        "Short_Name": "阿坝",
        "Longitude": 101.701,
        "Latitude": 32.9042,
        "Level": 3,
        "Sort": 1,
        "Status": 1,
        "Id": 36138
    },
    {
        "Did": 430382,
        "Parent_Did": 430300,
        "Name": "韶山市",
        "Short_Name": "韶山",
        "Longitude": 112.528,
        "Latitude": 27.9227,
        "Level": 3,
        "Sort": 1,
        "Status": 1,
        "Id": 25643
    },
    {
        "Did": 341522,
        "Parent_Did": 341500,
        "Name": "霍邱县",
        "Short_Name": "霍邱",
        "Longitude": 116.279,
        "Latitude": 32.3413,
        "Level": 3,
        "Sort": 1,
        "Status": 1,
        "Id": 15404
    },
    {
        "Did": 370784,
        "Parent_Did": 370700,
        "Name": "安丘市",
        "Short_Name": "安丘",
        "Longitude": 119.207,
        "Latitude": 36.4274,
        "Level": 3,
        "Sort": 1,
        "Status": 1,
        "Id": 19756
    },
    {
        "Did": 442001115,
        "Parent_Did": 442000,
        "Name": "板芙镇",
        "Short_Name": "板芙镇",
        "Longitude": 113.323,
        "Latitude": 22.4168,
        "Level": 3,
        "Sort": 1,
        "Status": 1,
        "Id": 29484
    },
    {
        "Did": 441625,
        "Parent_Did": 441600,
        "Name": "东源县",
        "Short_Name": "东源",
        "Longitude": 114.743,
        "Latitude": 23.7891,
        "Level": 3,
        "Sort": 1,
        "Status": 1,
        "Id": 29230
    },
    {
        "Did": 140882,
        "Parent_Did": 140800,
        "Name": "河津市",
        "Short_Name": "河津",
        "Longitude": 110.71,
        "Latitude": 35.5971,
        "Level": 3,
        "Sort": 1,
        "Status": 1,
        "Id": 4143
    },
    {
        "Did": 360829,
        "Parent_Did": 360800,
        "Name": "安福县",
        "Short_Name": "安福",
        "Longitude": 114.614,
        "Latitude": 27.3827,
        "Level": 3,
        "Sort": 1,
        "Status": 1,
        "Id": 18223
    },
    {
        "Did": 411082,
        "Parent_Did": 411000,
        "Name": "长葛市",
        "Short_Name": "长葛",
        "Longitude": 113.769,
        "Latitude": 34.2193,
        "Level": 3,
        "Sort": 1,
        "Status": 1,
        "Id": 22319
    },
    {
        "Did": 420802,
        "Parent_Did": 420800,
        "Name": "东宝区",
        "Short_Name": "东宝",
        "Longitude": 112.205,
        "Latitude": 31.0335,
        "Level": 3,
        "Sort": 1,
        "Status": 1,
        "Id": 24367
    },
    {
        "Did": 211422,
        "Parent_Did": 211400,
        "Name": "建昌县",
        "Short_Name": "建昌",
        "Longitude": 119.808,
        "Latitude": 40.8129,
        "Level": 3,
        "Sort": 1,
        "Status": 1,
        "Id": 7728
    },
    {
        "Did": 522328,
        "Parent_Did": 522300,
        "Name": "安龙县",
        "Short_Name": "安龙",
        "Longitude": 105.471,
        "Latitude": 25.109,
        "Level": 3,
        "Sort": 1,
        "Status": 1,
        "Id": 37938
    },
    {
        "Did": 231004,
        "Parent_Did": 231000,
        "Name": "爱民区",
        "Short_Name": "爱民",
        "Longitude": 129.601,
        "Latitude": 44.5954,
        "Level": 3,
        "Sort": 1,
        "Status": 1,
        "Id": 10291
    },
    {
        "Did": 371721,
        "Parent_Did": 371700,
        "Name": "曹县",
        "Short_Name": "曹县",
        "Longitude": 115.549,
        "Latitude": 34.8233,
        "Level": 3,
        "Sort": 1,
        "Status": 1,
        "Id": 20787
    },
    {
        "Did": 410822,
        "Parent_Did": 410800,
        "Name": "博爱县",
        "Short_Name": "博爱",
        "Longitude": 113.069,
        "Latitude": 35.1703,
        "Level": 3,
        "Sort": 1,
        "Status": 1,
        "Id": 22067
    },
    {
        "Did": 440802,
        "Parent_Did": 440800,
        "Name": "赤坎区",
        "Short_Name": "赤坎",
        "Longitude": 110.362,
        "Latitude": 21.2734,
        "Level": 3,
        "Sort": 1,
        "Status": 1,
        "Id": 28467
    },
    {
        "Did": 441422,
        "Parent_Did": 441400,
        "Name": "大埔县",
        "Short_Name": "大埔",
        "Longitude": 116.696,
        "Latitude": 24.3516,
        "Level": 3,
        "Sort": 1,
        "Status": 1,
        "Id": 28979
    },
    {
        "Did": 530422,
        "Parent_Did": 530400,
        "Name": "澄江县",
        "Short_Name": "澄江",
        "Longitude": 102.917,
        "Latitude": 24.6697,
        "Level": 3,
        "Sort": 1,
        "Status": 1,
        "Id": 38707
    },
    {
        "Did": 350425,
        "Parent_Did": 350400,
        "Name": "大田县",
        "Short_Name": "大田",
        "Longitude": 117.849,
        "Latitude": 25.6908,
        "Level": 3,
        "Sort": 1,
        "Status": 1,
        "Id": 16180
    },
    {
        "Did": 710369,
        "Parent_Did": 710300,
        "Name": "安定区",
        "Short_Name": "安定",
        "Longitude": 121.509,
        "Latitude": 25.0443,
        "Level": 3,
        "Sort": 1,
        "Status": 1,
        "Id": 46135
    },
    {
        "Did": 140502,
        "Parent_Did": 140500,
        "Name": "城区",
        "Short_Name": "城区",
        "Longitude": 112.853,
        "Latitude": 35.4966,
        "Level": 3,
        "Sort": 1,
        "Status": 1,
        "Id": 3640
    },
    {
        "Did": 350723,
        "Parent_Did": 350700,
        "Name": "光泽县",
        "Short_Name": "光泽",
        "Longitude": 117.338,
        "Latitude": 27.5428,
        "Level": 3,
        "Sort": 1,
        "Status": 1,
        "Id": 16696
    },
    {
        "Did": 450502,
        "Parent_Did": 450500,
        "Name": "海城区",
        "Short_Name": "海城",
        "Longitude": 109.108,
        "Latitude": 21.4684,
        "Level": 3,
        "Sort": 1,
        "Status": 1,
        "Id": 30264
    },
    {
        "Did": 320104,
        "Parent_Did": 320100,
        "Name": "秦淮区",
        "Short_Name": "秦淮",
        "Longitude": 118.786,
        "Latitude": 32.0338,
        "Level": 3,
        "Sort": 1,
        "Status": 1,
        "Id": 11065
    },
    {
        "Did": 469006109,
        "Parent_Did": 469006,
        "Name": "北大镇",
        "Short_Name": "北大镇",
        "Longitude": 110.375,
        "Latitude": 18.9557,
        "Level": 3,
        "Sort": 1,
        "Status": 1,
        "Id": 31289
    },
    {
        "Did": 330327,
        "Parent_Did": 330300,
        "Name": "苍南县",
        "Short_Name": "苍南",
        "Longitude": 120.406,
        "Latitude": 27.5077,
        "Level": 3,
        "Sort": 1,
        "Status": 1,
        "Id": 13114
    },
    {
        "Did": 360426,
        "Parent_Did": 360400,
        "Name": "德安县",
        "Short_Name": "德安",
        "Longitude": 115.763,
        "Latitude": 29.3275,
        "Level": 3,
        "Sort": 1,
        "Status": 1,
        "Id": 17469
    },
    {
        "Did": 371324,
        "Parent_Did": 371300,
        "Name": "苍山县",
        "Short_Name": "苍山",
        "Longitude": 118.326,
        "Latitude": 35.0653,
        "Level": 3,
        "Sort": 1,
        "Status": 1,
        "Id": 20285
    },
    {
        "Did": 710405,
        "Parent_Did": 710400,
        "Name": "北区",
        "Short_Name": "北区",
        "Longitude": 121.509,
        "Latitude": 25.0443,
        "Level": 3,
        "Sort": 1,
        "Status": 1,
        "Id": 46141
    },
    {
        "Did": 410304,
        "Parent_Did": 410300,
        "Name": "瀍河回族区",
        "Short_Name": "瀍河回族",
        "Longitude": 112.492,
        "Latitude": 34.6847,
        "Level": 3,
        "Sort": 1,
        "Status": 1,
        "Id": 21310
    },
    {
        "Did": 451381,
        "Parent_Did": 451300,
        "Name": "合山市",
        "Short_Name": "合山",
        "Longitude": 108.889,
        "Latitude": 23.8131,
        "Level": 3,
        "Sort": 1,
        "Status": 1,
        "Id": 31038
    },
    {
        "Did": 220421,
        "Parent_Did": 220400,
        "Name": "东丰县",
        "Short_Name": "东丰",
        "Longitude": 125.53,
        "Latitude": 42.6752,
        "Level": 3,
        "Sort": 1,
        "Status": 1,
        "Id": 8255
    },
    {
        "Did": 320581,
        "Parent_Did": 320500,
        "Name": "常熟市",
        "Short_Name": "常熟",
        "Longitude": 120.749,
        "Latitude": 31.6582,
        "Level": 3,
        "Sort": 1,
        "Status": 1,
        "Id": 11583
    },
    {
        "Did": 712521,
        "Parent_Did": 712500,
        "Name": "卑南乡",
        "Short_Name": "卑南",
        "Longitude": 121.509,
        "Latitude": 25.0443,
        "Level": 3,
        "Sort": 1,
        "Status": 1,
        "Id": 46399
    },
    {
        "Did": 430511,
        "Parent_Did": 430500,
        "Name": "北塔区",
        "Short_Name": "北塔",
        "Longitude": 111.452,
        "Latitude": 27.2457,
        "Level": 3,
        "Sort": 1,
        "Status": 1,
        "Id": 25920
    },
    {
        "Did": 510681,
        "Parent_Did": 510600,
        "Name": "广汉市",
        "Short_Name": "广汉",
        "Longitude": 104.282,
        "Latitude": 30.9771,
        "Level": 3,
        "Sort": 1,
        "Status": 1,
        "Id": 33088
    },
    {
        "Did": 150721,
        "Parent_Did": 150700,
        "Name": "阿荣旗",
        "Short_Name": "阿荣",
        "Longitude": 123.465,
        "Latitude": 48.1305,
        "Level": 3,
        "Sort": 1,
        "Status": 1,
        "Id": 5442
    },
    {
        "Did": 321112,
        "Parent_Did": 321100,
        "Name": "丹徒区",
        "Short_Name": "丹徒",
        "Longitude": 119.434,
        "Latitude": 32.129,
        "Level": 3,
        "Sort": 1,
        "Status": 1,
        "Id": 12354
    },
    {
        "Did": 360202,
        "Parent_Did": 360200,
        "Name": "昌江区",
        "Short_Name": "昌江",
        "Longitude": 117.195,
        "Latitude": 29.2885,
        "Level": 3,
        "Sort": 1,
        "Status": 1,
        "Id": 17220
    },
    {
        "Did": 419001003,
        "Parent_Did": 410881,
        "Name": "北海街道",
        "Short_Name": "北海街道",
        "Longitude": 112.593,
        "Latitude": 35.0974,
        "Level": 3,
        "Sort": 1,
        "Status": 1,
        "Id": 23620
    },
    {
        "Did": 441702,
        "Parent_Did": 441700,
        "Name": "江城区",
        "Short_Name": "江城",
        "Longitude": 111.969,
        "Latitude": 21.8592,
        "Level": 3,
        "Sort": 1,
        "Status": 1,
        "Id": 29253
    },
    {
        "Did": 632622,
        "Parent_Did": 632600,
        "Name": "班玛县",
        "Short_Name": "班玛",
        "Longitude": 100.738,
        "Latitude": 32.9316,
        "Level": 3,
        "Sort": 1,
        "Status": 1,
        "Id": 44101
    },
    {
        "Did": 141128,
        "Parent_Did": 141100,
        "Name": "方山县",
        "Short_Name": "方山",
        "Longitude": 111.239,
        "Latitude": 37.8926,
        "Level": 3,
        "Sort": 1,
        "Status": 1,
        "Id": 4678
    },
    {
        "Did": 469007104,
        "Parent_Did": 469007,
        "Name": "板桥镇",
        "Short_Name": "板桥镇",
        "Longitude": 108.689,
        "Latitude": 18.7949,
        "Level": 3,
        "Sort": 1,
        "Status": 1,
        "Id": 31302
    },
    {
        "Did": 522422,
        "Parent_Did": 522400,
        "Name": "大方县",
        "Short_Name": "大方",
        "Longitude": 105.609,
        "Latitude": 27.1435,
        "Level": 3,
        "Sort": 1,
        "Status": 1,
        "Id": 37958
    },
    {
        "Did": 371002,
        "Parent_Did": 371000,
        "Name": "环翠区",
        "Short_Name": "环翠",
        "Longitude": 122.116,
        "Latitude": 37.5108,
        "Level": 3,
        "Sort": 1,
        "Status": 1,
        "Id": 20039
    },
    {
        "Did": 230406,
        "Parent_Did": 230400,
        "Name": "东山区",
        "Short_Name": "东山",
        "Longitude": 130.317,
        "Latitude": 47.3374,
        "Level": 3,
        "Sort": 1,
        "Status": 1,
        "Id": 9544
    },
    {
        "Did": 429004114,
        "Parent_Did": 429004,
        "Name": "陈场镇",
        "Short_Name": "陈场镇",
        "Longitude": 113.088,
        "Latitude": 30.2351,
        "Level": 3,
        "Sort": 1,
        "Status": 1,
        "Id": 25160
    },
    {
        "Did": 542425,
        "Parent_Did": 542400,
        "Name": "安多县",
        "Short_Name": "安多",
        "Longitude": 91.6819,
        "Latitude": 32.2603,
        "Level": 3,
        "Sort": 1,
        "Status": 1,
        "Id": 40520
    },
    {
        "Did": 650107,
        "Parent_Did": 650100,
        "Name": "达坂城区",
        "Short_Name": "达坂城",
        "Longitude": 88.3099,
        "Latitude": 43.3618,
        "Level": 3,
        "Sort": 1,
        "Status": 1,
        "Id": 44617
    },
    {
        "Did": 150302,
        "Parent_Did": 150300,
        "Name": "海勃湾区",
        "Short_Name": "海勃湾",
        "Longitude": 106.818,
        "Latitude": 39.6735,
        "Level": 3,
        "Sort": 1,
        "Status": 1,
        "Id": 4939
    },
    {
        "Did": 440403,
        "Parent_Did": 440400,
        "Name": "斗门区",
        "Short_Name": "斗门",
        "Longitude": 113.298,
        "Latitude": 22.2091,
        "Level": 3,
        "Sort": 1,
        "Status": 1,
        "Id": 28235
    },
    {
        "Did": 511011,
        "Parent_Did": 511000,
        "Name": "东兴区",
        "Short_Name": "东兴",
        "Longitude": 105.067,
        "Latitude": 29.6001,
        "Level": 3,
        "Sort": 1,
        "Status": 1,
        "Id": 33867
    },
    {
        "Did": 370634,
        "Parent_Did": 370600,
        "Name": "长岛县",
        "Short_Name": "长岛",
        "Longitude": 120.738,
        "Latitude": 37.9162,
        "Level": 3,
        "Sort": 1,
        "Status": 1,
        "Id": 19532
    },
    {
        "Did": 320722,
        "Parent_Did": 320700,
        "Name": "东海县",
        "Short_Name": "东海",
        "Longitude": 118.766,
        "Latitude": 34.5229,
        "Level": 3,
        "Sort": 1,
        "Status": 1,
        "Id": 11853
    },
    {
        "Did": 469021100,
        "Parent_Did": 469025,
        "Name": "定城镇",
        "Short_Name": "定城镇",
        "Longitude": 110.368,
        "Latitude": 19.6802,
        "Level": 3,
        "Sort": 1,
        "Status": 1,
        "Id": 31310
    },
    {
        "Did": 620105,
        "Parent_Did": 620100,
        "Name": "安宁区",
        "Short_Name": "安宁",
        "Longitude": 103.724,
        "Latitude": 36.1033,
        "Level": 3,
        "Sort": 1,
        "Status": 1,
        "Id": 42318
    },
    {
        "Did": 420281,
        "Parent_Did": 420200,
        "Name": "大冶市",
        "Short_Name": "大冶",
        "Longitude": 114.975,
        "Latitude": 30.0988,
        "Level": 3,
        "Sort": 1,
        "Status": 1,
        "Id": 23887
    },
    {
        "Did": 450303,
        "Parent_Did": 450300,
        "Name": "叠彩区",
        "Short_Name": "叠彩",
        "Longitude": 110.301,
        "Latitude": 25.3013,
        "Level": 3,
        "Sort": 1,
        "Status": 1,
        "Id": 30032
    },
    {
        "Did": 220722,
        "Parent_Did": 220700,
        "Name": "长岭县",
        "Short_Name": "长岭",
        "Longitude": 123.985,
        "Latitude": 44.2766,
        "Level": 3,
        "Sort": 1,
        "Status": 1,
        "Id": 8529
    },
    {
        "Did": 340111,
        "Parent_Did": 340100,
        "Name": "包河区",
        "Short_Name": "包河",
        "Longitude": 117.286,
        "Latitude": 31.8296,
        "Level": 3,
        "Sort": 1,
        "Status": 1,
        "Id": 14161
    },
    {
        "Did": 420528,
        "Parent_Did": 420500,
        "Name": "长阳土家族自治县",
        "Short_Name": "长阳",
        "Longitude": 111.198,
        "Latitude": 30.4665,
        "Level": 3,
        "Sort": 1,
        "Status": 1,
        "Id": 24145
    },
    {
        "Did": 131002,
        "Parent_Did": 131000,
        "Name": "安次区",
        "Short_Name": "安次",
        "Longitude": 116.695,
        "Latitude": 39.5026,
        "Level": 3,
        "Sort": 1,
        "Status": 1,
        "Id": 2898
    },
    {
        "Did": 340405,
        "Parent_Did": 340400,
        "Name": "八公山区",
        "Short_Name": "八公山",
        "Longitude": 116.841,
        "Latitude": 32.6282,
        "Level": 3,
        "Sort": 1,
        "Status": 1,
        "Id": 14418
    },
    {
        "Did": 431028,
        "Parent_Did": 431000,
        "Name": "安仁县",
        "Short_Name": "安仁",
        "Longitude": 113.272,
        "Latitude": 26.7086,
        "Level": 3,
        "Sort": 1,
        "Status": 1,
        "Id": 26962
    },
    {
        "Did": 341125,
        "Parent_Did": 341100,
        "Name": "定远县",
        "Short_Name": "定远",
        "Longitude": 117.684,
        "Latitude": 32.5271,
        "Level": 3,
        "Sort": 1,
        "Status": 1,
        "Id": 14931
    },
    {
        "Did": 430623,
        "Parent_Did": 430600,
        "Name": "华容县",
        "Short_Name": "华容",
        "Longitude": 112.559,
        "Latitude": 29.5241,
        "Level": 3,
        "Sort": 1,
        "Status": 1,
        "Id": 26195
    },
    {
        "Did": 433125,
        "Parent_Did": 433100,
        "Name": "保靖县",
        "Short_Name": "保靖",
        "Longitude": 109.651,
        "Latitude": 28.7096,
        "Level": 3,
        "Sort": 1,
        "Status": 1,
        "Id": 27732
    },
    {
        "Did": 712623,
        "Parent_Did": 712600,
        "Name": "丰滨乡",
        "Short_Name": "丰滨",
        "Longitude": 121.509,
        "Latitude": 25.0443,
        "Level": 3,
        "Sort": 1,
        "Status": 1,
        "Id": 46420
    },
    {
        "Did": 445121,
        "Parent_Did": 445100,
        "Name": "潮安区",
        "Short_Name": "潮安",
        "Longitude": 116.679,
        "Latitude": 23.461,
        "Level": 3,
        "Sort": 1,
        "Status": 1,
        "Id": 29525
    },
    {
        "Did": 152522,
        "Parent_Did": 152500,
        "Name": "阿巴嘎旗",
        "Short_Name": "阿巴嘎",
        "Longitude": 114.971,
        "Latitude": 44.0227,
        "Level": 3,
        "Sort": 1,
        "Status": 1,
        "Id": 5974
    },
    {
        "Did": 210782,
        "Parent_Did": 210700,
        "Name": "北镇市",
        "Short_Name": "北镇",
        "Longitude": 121.796,
        "Latitude": 41.5988,
        "Level": 3,
        "Sort": 1,
        "Status": 1,
        "Id": 6998
    },
    {
        "Did": 640303,
        "Parent_Did": 640300,
        "Name": "红寺堡区",
        "Short_Name": "红寺堡",
        "Longitude": 106.067,
        "Latitude": 37.4216,
        "Level": 3,
        "Sort": 1,
        "Status": 1,
        "Id": 44375
    },
    {
        "Did": 370304,
        "Parent_Did": 370300,
        "Name": "博山区",
        "Short_Name": "博山",
        "Longitude": 117.858,
        "Latitude": 36.4976,
        "Level": 3,
        "Sort": 1,
        "Status": 1,
        "Id": 19288
    },
    {
        "Did": 320321,
        "Parent_Did": 320300,
        "Name": "丰县",
        "Short_Name": "丰县",
        "Longitude": 116.593,
        "Latitude": 34.6969,
        "Level": 3,
        "Sort": 1,
        "Status": 1,
        "Id": 11354
    },
    {
        "Did": 710510,
        "Parent_Did": 710500,
        "Name": "金城镇",
        "Short_Name": "金城",
        "Longitude": 121.509,
        "Latitude": 25.0443,
        "Level": 3,
        "Sort": 1,
        "Status": 1,
        "Id": 46170
    },
    {
        "Did": 320922,
        "Parent_Did": 320900,
        "Name": "滨海县",
        "Short_Name": "滨海",
        "Longitude": 119.828,
        "Latitude": 33.9899,
        "Level": 3,
        "Sort": 1,
        "Status": 1,
        "Id": 12124
    },
    {
        "Did": 220502,
        "Parent_Did": 220500,
        "Name": "东昌区",
        "Short_Name": "东昌",
        "Longitude": 125.937,
        "Latitude": 41.7212,
        "Level": 3,
        "Sort": 1,
        "Status": 1,
        "Id": 8285
    },
    {
        "Did": 469022102,
        "Parent_Did": 469026,
        "Name": "枫木镇",
        "Short_Name": "枫木镇",
        "Longitude": 110.019,
        "Latitude": 19.2145,
        "Level": 3,
        "Sort": 1,
        "Status": 1,
        "Id": 31325
    },
    {
        "Did": 620523,
        "Parent_Did": 620500,
        "Name": "甘谷县",
        "Short_Name": "甘谷",
        "Longitude": 105.332,
        "Latitude": 34.7473,
        "Level": 3,
        "Sort": 1,
        "Status": 1,
        "Id": 42589
    },
    {
        "Did": 621221,
        "Parent_Did": 621200,
        "Name": "成县",
        "Short_Name": "成县",
        "Longitude": 105.734,
        "Latitude": 33.7399,
        "Level": 3,
        "Sort": 1,
        "Status": 1,
        "Id": 43359
    },
    {
        "Did": 712711,
        "Parent_Did": 712700,
        "Name": "白沙乡",
        "Short_Name": "白沙",
        "Longitude": 121.509,
        "Latitude": 25.0443,
        "Level": 3,
        "Sort": 1,
        "Status": 1,
        "Id": 46431
    },
    {
        "Did": 511132,
        "Parent_Did": 511100,
        "Name": "峨边彝族自治县",
        "Short_Name": "峨边",
        "Longitude": 103.262,
        "Latitude": 29.2303,
        "Level": 3,
        "Sort": 1,
        "Status": 1,
        "Id": 34144
    },
    {
        "Did": 710616,
        "Parent_Did": 710600,
        "Name": "草屯镇",
        "Short_Name": "草屯",
        "Longitude": 121.509,
        "Latitude": 25.0443,
        "Level": 3,
        "Sort": 1,
        "Status": 1,
        "Id": 46176
    },
    {
        "Did": 330822,
        "Parent_Did": 330800,
        "Name": "常山县",
        "Short_Name": "常山",
        "Longitude": 118.522,
        "Latitude": 28.9,
        "Level": 3,
        "Sort": 1,
        "Status": 1,
        "Id": 13665
    },
    {
        "Did": 530702,
        "Parent_Did": 530700,
        "Name": "古城区",
        "Short_Name": "古城",
        "Longitude": 100.234,
        "Latitude": 26.8722,
        "Level": 3,
        "Sort": 1,
        "Status": 1,
        "Id": 39009
    },
    {
        "Did": 654301,
        "Parent_Did": 654300,
        "Name": "阿勒泰市",
        "Short_Name": "阿勒泰",
        "Longitude": 88.1387,
        "Latitude": 47.8489,
        "Level": 3,
        "Sort": 1,
        "Status": 1,
        "Id": 45921
    },
    {
        "Did": 330206,
        "Parent_Did": 330200,
        "Name": "北仑区",
        "Short_Name": "北仑",
        "Longitude": 121.831,
        "Latitude": 29.9094,
        "Level": 3,
        "Sort": 1,
        "Status": 1,
        "Id": 12898
    },
    {
        "Did": 230805,
        "Parent_Did": 230800,
        "Name": "东风区",
        "Short_Name": "东风",
        "Longitude": 130.403,
        "Latitude": 46.8225,
        "Level": 3,
        "Sort": 1,
        "Status": 1,
        "Id": 10083
    },
    {
        "Did": 654022,
        "Parent_Did": 654000,
        "Name": "察布查尔锡伯自治县",
        "Short_Name": "察布查尔",
        "Longitude": 81.1509,
        "Latitude": 43.8389,
        "Level": 3,
        "Sort": 1,
        "Status": 1,
        "Id": 45667
    },
    {
        "Did": 712806,
        "Parent_Did": 712800,
        "Name": "北竿乡",
        "Short_Name": "北竿",
        "Longitude": 121.509,
        "Latitude": 25.0443,
        "Level": 3,
        "Sort": 1,
        "Status": 1,
        "Id": 46435
    },
    {
        "Did": 141026,
        "Parent_Did": 141000,
        "Name": "安泽县",
        "Short_Name": "安泽",
        "Longitude": 112.251,
        "Latitude": 36.146,
        "Level": 3,
        "Sort": 1,
        "Status": 1,
        "Id": 4452
    },
    {
        "Did": 622926,
        "Parent_Did": 622900,
        "Name": "东乡族自治县",
        "Short_Name": "东乡",
        "Longitude": 103.39,
        "Latitude": 35.6638,
        "Level": 3,
        "Sort": 1,
        "Status": 1,
        "Id": 43622
    },
    {
        "Did": 429005454,
        "Parent_Did": 429005,
        "Name": "白鹭湖管理区",
        "Short_Name": "白鹭湖管理区",
        "Longitude": 112.897,
        "Latitude": 30.4212,
        "Level": 3,
        "Sort": 1,
        "Status": 1,
        "Id": 25191
    },
    {
        "Did": 530927,
        "Parent_Did": 530900,
        "Name": "沧源佤族自治县",
        "Short_Name": "沧源",
        "Longitude": 99.2474,
        "Latitude": 23.1469,
        "Level": 3,
        "Sort": 1,
        "Status": 1,
        "Id": 39272
    },
    {
        "Did": 652702,
        "Parent_Did": 652700,
        "Name": "阿拉山口市",
        "Short_Name": "阿拉山口",
        "Longitude": 82.0748,
        "Latitude": 44.9033,
        "Level": 3,
        "Sort": 1,
        "Status": 1,
        "Id": 44904
    },
    {
        "Did": 130732,
        "Parent_Did": 130700,
        "Name": "赤城县",
        "Short_Name": "赤城",
        "Longitude": 115.833,
        "Latitude": 40.9121,
        "Level": 3,
        "Sort": 1,
        "Status": 1,
        "Id": 2409
    },
    {
        "Did": 370113,
        "Parent_Did": 370100,
        "Name": "长清区",
        "Short_Name": "长清",
        "Longitude": 116.746,
        "Latitude": 36.5611,
        "Level": 3,
        "Sort": 1,
        "Status": 1,
        "Id": 19049
    },
    {
        "Did": 130683,
        "Parent_Did": 130600,
        "Name": "安国市",
        "Short_Name": "安国",
        "Longitude": 115.331,
        "Latitude": 38.4214,
        "Level": 3,
        "Sort": 1,
        "Status": 1,
        "Id": 2154
    },
    {
        "Did": 371523,
        "Parent_Did": 371500,
        "Name": "茌平县",
        "Short_Name": "茌平",
        "Longitude": 116.253,
        "Latitude": 36.5919,
        "Level": 3,
        "Sort": 1,
        "Status": 1,
        "Id": 20586
    },
    {
        "Did": 810103,
        "Parent_Did": 810100,
        "Name": "东区",
        "Short_Name": "东区",
        "Longitude": 114.173,
        "Latitude": 22.32,
        "Level": 3,
        "Sort": 1,
        "Status": 1,
        "Id": 46442
    },
    {
        "Did": 210521,
        "Parent_Did": 210500,
        "Name": "本溪满族自治县",
        "Short_Name": "本溪",
        "Longitude": 124.126,
        "Latitude": 41.3003,
        "Level": 3,
        "Sort": 1,
        "Status": 1,
        "Id": 6763
    },
    {
        "Did": 330682,
        "Parent_Did": 330600,
        "Name": "上虞市",
        "Short_Name": "上虞",
        "Longitude": 120.582,
        "Latitude": 29.9971,
        "Level": 3,
        "Sort": 1,
        "Status": 1,
        "Id": 13419
    },
    {
        "Did": 341822,
        "Parent_Did": 341800,
        "Name": "广德县",
        "Short_Name": "广德",
        "Longitude": 119.418,
        "Latitude": 30.8931,
        "Level": 3,
        "Sort": 1,
        "Status": 1,
        "Id": 15725
    },
    {
        "Did": 411122,
        "Parent_Did": 411100,
        "Name": "临颍县",
        "Short_Name": "临颍",
        "Longitude": 113.939,
        "Latitude": 33.8061,
        "Level": 3,
        "Sort": 1,
        "Status": 1,
        "Id": 22381
    },
    {
        "Did": 140302,
        "Parent_Did": 140300,
        "Name": "城区",
        "Short_Name": "城区",
        "Longitude": 113.587,
        "Latitude": 37.8609,
        "Level": 3,
        "Sort": 1,
        "Status": 1,
        "Id": 3439
    },
    {
        "Did": 469023110,
        "Parent_Did": 469027,
        "Name": "大丰镇",
        "Short_Name": "大丰镇",
        "Longitude": 110.038,
        "Latitude": 19.8555,
        "Level": 3,
        "Sort": 1,
        "Status": 1,
        "Id": 31343
    },
    {
        "Did": 610722,
        "Parent_Did": 610700,
        "Name": "城固县",
        "Short_Name": "城固",
        "Longitude": 107.33,
        "Latitude": 33.1531,
        "Level": 3,
        "Sort": 1,
        "Status": 1,
        "Id": 41583
    },
    {
        "Did": 610825,
        "Parent_Did": 610800,
        "Name": "定边县",
        "Short_Name": "定边",
        "Longitude": 107.601,
        "Latitude": 37.5952,
        "Level": 3,
        "Sort": 1,
        "Status": 1,
        "Id": 41839
    },
    {
        "Did": 710705,
        "Parent_Did": 710700,
        "Name": "安乐区",
        "Short_Name": "安乐",
        "Longitude": 121.509,
        "Latitude": 25.0443,
        "Level": 3,
        "Sort": 1,
        "Status": 1,
        "Id": 46192
    },
    {
        "Did": 450981,
        "Parent_Did": 450900,
        "Name": "北流市",
        "Short_Name": "北流",
        "Longitude": 110.348,
        "Latitude": 22.7016,
        "Level": 3,
        "Sort": 1,
        "Status": 1,
        "Id": 30577
    },
    {
        "Did": 810205,
        "Parent_Did": 810200,
        "Name": "观塘区",
        "Short_Name": "观塘",
        "Longitude": 114.173,
        "Latitude": 22.32,
        "Level": 3,
        "Sort": 1,
        "Status": 1,
        "Id": 46449
    },
    {
        "Did": 610929,
        "Parent_Did": 610900,
        "Name": "白河县",
        "Short_Name": "白河",
        "Longitude": 110.114,
        "Latitude": 32.8095,
        "Level": 3,
        "Sort": 1,
        "Status": 1,
        "Id": 42099
    },
    {
        "Did": 810301,
        "Parent_Did": 810300,
        "Name": "北区",
        "Short_Name": "北区",
        "Longitude": 114.173,
        "Latitude": 22.32,
        "Level": 3,
        "Sort": 1,
        "Status": 1,
        "Id": 46451
    },
    {
        "Did": 532301,
        "Parent_Did": 532300,
        "Name": "楚雄市",
        "Short_Name": "楚雄",
        "Longitude": 101.546,
        "Latitude": 25.0409,
        "Level": 3,
        "Sort": 1,
        "Status": 1,
        "Id": 39285
    },
    {
        "Did": 710802,
        "Parent_Did": 710800,
        "Name": "北区",
        "Short_Name": "北区",
        "Longitude": 121.509,
        "Latitude": 25.0443,
        "Level": 3,
        "Sort": 1,
        "Status": 1,
        "Id": 46197
    },
    {
        "Did": 430923,
        "Parent_Did": 430900,
        "Name": "安化县",
        "Short_Name": "安化",
        "Longitude": 111.222,
        "Latitude": 28.3774,
        "Level": 3,
        "Sort": 1,
        "Status": 1,
        "Id": 26742
    },
    {
        "Did": 469024103,
        "Parent_Did": 469028,
        "Name": "博厚镇",
        "Short_Name": "博厚镇",
        "Longitude": 109.75,
        "Latitude": 19.8787,
        "Level": 3,
        "Sort": 1,
        "Status": 1,
        "Id": 31350
    },
    {
        "Did": 130524,
        "Parent_Did": 130500,
        "Name": "柏乡县",
        "Short_Name": "柏乡",
        "Longitude": 114.693,
        "Latitude": 37.4836,
        "Level": 3,
        "Sort": 1,
        "Status": 1,
        "Id": 1655
    },
    {
        "Did": 650204,
        "Parent_Did": 650200,
        "Name": "白碱滩区",
        "Short_Name": "白碱滩",
        "Longitude": 85.1299,
        "Latitude": 45.689,
        "Level": 3,
        "Sort": 1,
        "Status": 1,
        "Id": 44663
    },
    {
        "Did": 710901,
        "Parent_Did": 710900,
        "Name": "东区",
        "Short_Name": "东区",
        "Longitude": 121.509,
        "Latitude": 25.0443,
        "Level": 3,
        "Sort": 1,
        "Status": 1,
        "Id": 46200
    },
    {
        "Did": 320602,
        "Parent_Did": 320600,
        "Name": "崇川区",
        "Short_Name": "崇川",
        "Longitude": 120.866,
        "Latitude": 32.0153,
        "Level": 3,
        "Sort": 1,
        "Status": 1,
        "Id": 11641
    },
    {
        "Did": 621024,
        "Parent_Did": 621000,
        "Name": "合水县",
        "Short_Name": "合水",
        "Longitude": 108.02,
        "Latitude": 35.819,
        "Level": 3,
        "Sort": 1,
        "Status": 1,
        "Id": 43129
    },
    {
        "Did": 450681,
        "Parent_Did": 450600,
        "Name": "东兴市",
        "Short_Name": "东兴",
        "Longitude": 107.97,
        "Latitude": 21.5412,
        "Level": 3,
        "Sort": 1,
        "Status": 1,
        "Id": 30331
    },
    {
        "Did": 451424,
        "Parent_Did": 451400,
        "Name": "大新县",
        "Short_Name": "大新",
        "Longitude": 107.201,
        "Latitude": 22.8334,
        "Level": 3,
        "Sort": 1,
        "Status": 1,
        "Id": 31099
    },
    {
        "Did": 130424,
        "Parent_Did": 130400,
        "Name": "成安县",
        "Short_Name": "成安",
        "Longitude": 114.68,
        "Latitude": 36.4438,
        "Level": 3,
        "Sort": 1,
        "Status": 1,
        "Id": 1405
    },
    {
        "Did": 411202,
        "Parent_Did": 411200,
        "Name": "湖滨区",
        "Short_Name": "湖滨",
        "Longitude": 111.195,
        "Latitude": 34.7781,
        "Level": 3,
        "Sort": 1,
        "Status": 1,
        "Id": 22398
    },
    {
        "Did": 210804,
        "Parent_Did": 210800,
        "Name": "鲅鱼圈区",
        "Short_Name": "鲅鱼圈",
        "Longitude": 122.127,
        "Latitude": 40.2636,
        "Level": 3,
        "Sort": 1,
        "Status": 1,
        "Id": 7041
    },
    {
        "Did": 469025102,
        "Parent_Did": 469030,
        "Name": "邦溪镇",
        "Short_Name": "邦溪镇",
        "Longitude": 109.103,
        "Latitude": 19.37,
        "Level": 3,
        "Sort": 1,
        "Status": 1,
        "Id": 31362
    },
    {
        "Did": 510824,
        "Parent_Did": 510800,
        "Name": "苍溪县",
        "Short_Name": "苍溪",
        "Longitude": 105.94,
        "Latitude": 31.7323,
        "Level": 3,
        "Sort": 1,
        "Status": 1,
        "Id": 33666
    },
    {
        "Did": 632723,
        "Parent_Did": 632700,
        "Name": "称多县",
        "Short_Name": "称多",
        "Longitude": 97.1109,
        "Latitude": 33.3679,
        "Level": 3,
        "Sort": 1,
        "Status": 1,
        "Id": 44162
    },
    {
        "Did": 230181,
        "Parent_Did": 230100,
        "Name": "阿城区",
        "Short_Name": "阿城",
        "Longitude": 126.973,
        "Latitude": 45.5384,
        "Level": 3,
        "Sort": 1,
        "Status": 1,
        "Id": 9092
    },
    {
        "Did": 350981,
        "Parent_Did": 350900,
        "Name": "福安市",
        "Short_Name": "福安",
        "Longitude": 119.651,
        "Latitude": 27.0842,
        "Level": 3,
        "Sort": 1,
        "Status": 1,
        "Id": 17028
    },
    {
        "Did": 360726,
        "Parent_Did": 360700,
        "Name": "安远县",
        "Short_Name": "安远",
        "Longitude": 115.392,
        "Latitude": 25.1346,
        "Level": 3,
        "Sort": 1,
        "Status": 1,
        "Id": 17796
    },
    {
        "Did": 321203,
        "Parent_Did": 321200,
        "Name": "高港区",
        "Short_Name": "高港",
        "Longitude": 119.882,
        "Latitude": 32.3157,
        "Level": 3,
        "Sort": 1,
        "Status": 1,
        "Id": 12421
    },
    {
        "Did": 429006451,
        "Parent_Did": 429006,
        "Name": "白茅湖农场",
        "Short_Name": "白茅湖农场",
        "Longitude": 113.166,
        "Latitude": 30.6531,
        "Level": 3,
        "Sort": 1,
        "Status": 1,
        "Id": 25221
    },
    {
        "Did": 360302,
        "Parent_Did": 360300,
        "Name": "安源区",
        "Short_Name": "安源",
        "Longitude": 113.855,
        "Latitude": 27.6258,
        "Level": 3,
        "Sort": 1,
        "Status": 1,
        "Id": 17286
    },
    {
        "Did": 231102,
        "Parent_Did": 231100,
        "Name": "爱辉区",
        "Short_Name": "爱辉",
        "Longitude": 127.498,
        "Latitude": 50.249,
        "Level": 3,
        "Sort": 1,
        "Status": 1,
        "Id": 10377
    },
    {
        "Did": 341321,
        "Parent_Did": 341300,
        "Name": "砀山县",
        "Short_Name": "砀山",
        "Longitude": 116.351,
        "Latitude": 34.4262,
        "Level": 3,
        "Sort": 1,
        "Status": 1,
        "Id": 15241
    },
    {
        "Did": 440514,
        "Parent_Did": 440500,
        "Name": "潮南区",
        "Short_Name": "潮南",
        "Longitude": 116.424,
        "Latitude": 23.2498,
        "Level": 3,
        "Sort": 1,
        "Status": 1,
        "Id": 28298
    },
    {
        "Did": 520424,
        "Parent_Did": 520400,
        "Name": "关岭布依族苗族自治县",
        "Short_Name": "关岭",
        "Longitude": 105.618,
        "Latitude": 25.9442,
        "Level": 3,
        "Sort": 1,
        "Status": 1,
        "Id": 37770
    },
    {
        "Did": 610527,
        "Parent_Did": 610500,
        "Name": "白水县",
        "Short_Name": "白水",
        "Longitude": 109.594,
        "Latitude": 35.1773,
        "Level": 3,
        "Sort": 1,
        "Status": 1,
        "Id": 41354
    },
    {
        "Did": 429021103,
        "Parent_Did": 429021,
        "Name": "红坪镇",
        "Short_Name": "红坪镇",
        "Longitude": 110.429,
        "Latitude": 31.6728,
        "Level": 3,
        "Sort": 1,
        "Status": 1,
        "Id": 25227
    },
    {
        "Did": 522626,
        "Parent_Did": 522600,
        "Name": "岑巩县",
        "Short_Name": "岑巩",
        "Longitude": 108.816,
        "Latitude": 27.1732,
        "Level": 3,
        "Sort": 1,
        "Status": 1,
        "Id": 38027
    },
    {
        "Did": 620823,
        "Parent_Did": 620800,
        "Name": "崇信县",
        "Short_Name": "崇信",
        "Longitude": 107.031,
        "Latitude": 35.3045,
        "Level": 3,
        "Sort": 1,
        "Status": 1,
        "Id": 42892
    },
    {
        "Did": 211121,
        "Parent_Did": 211100,
        "Name": "大洼县",
        "Short_Name": "大洼",
        "Longitude": 122.072,
        "Latitude": 40.9944,
        "Level": 3,
        "Sort": 1,
        "Status": 1,
        "Id": 7309
    },
    {
        "Did": 350205,
        "Parent_Did": 350200,
        "Name": "海沧区",
        "Short_Name": "海沧",
        "Longitude": 118.036,
        "Latitude": 24.4925,
        "Level": 3,
        "Sort": 1,
        "Status": 1,
        "Id": 16013
    },
    {
        "Did": 441226,
        "Parent_Did": 441200,
        "Name": "德庆县",
        "Short_Name": "德庆",
        "Longitude": 111.782,
        "Latitude": 23.1417,
        "Level": 3,
        "Sort": 1,
        "Status": 1,
        "Id": 28813
    },
    {
        "Did": 430224,
        "Parent_Did": 430200,
        "Name": "茶陵县",
        "Short_Name": "茶陵",
        "Longitude": 113.547,
        "Latitude": 26.7895,
        "Level": 3,
        "Sort": 1,
        "Status": 1,
        "Id": 25486
    },
    {
        "Did": 410185,
        "Parent_Did": 410100,
        "Name": "登封市",
        "Short_Name": "登封",
        "Longitude": 113.038,
        "Latitude": 34.4599,
        "Level": 3,
        "Sort": 1,
        "Status": 1,
        "Id": 21135
    },
    {
        "Did": 652122,
        "Parent_Did": 652100,
        "Name": "鄯善县",
        "Short_Name": "鄯善",
        "Longitude": 90.2127,
        "Latitude": 42.8655,
        "Level": 3,
        "Sort": 1,
        "Status": 1,
        "Id": 44687
    },
    {
        "Did": 220104,
        "Parent_Did": 220100,
        "Name": "朝阳区",
        "Short_Name": "朝阳",
        "Longitude": 125.318,
        "Latitude": 43.8649,
        "Level": 3,
        "Sort": 1,
        "Status": 1,
        "Id": 7824
    },
    {
        "Did": 340506,
        "Parent_Did": 340500,
        "Name": "博望区",
        "Short_Name": "博望",
        "Longitude": 118.844,
        "Latitude": 31.5623,
        "Level": 3,
        "Sort": 1,
        "Status": 1,
        "Id": 14480
    },
    {
        "Did": 370829,
        "Parent_Did": 370800,
        "Name": "嘉祥县",
        "Short_Name": "嘉祥",
        "Longitude": 116.343,
        "Latitude": 35.3981,
        "Level": 3,
        "Sort": 1,
        "Status": 1,
        "Id": 19856
    },
    {
        "Did": 469026101,
        "Parent_Did": 469031,
        "Name": "叉河镇",
        "Short_Name": "叉河镇",
        "Longitude": 108.956,
        "Latitude": 19.2347,
        "Level": 3,
        "Sort": 1,
        "Status": 1,
        "Id": 31376
    },
    {
        "Did": 511721,
        "Parent_Did": 511700,
        "Name": "达川区",
        "Short_Name": "达川",
        "Longitude": 107.508,
        "Latitude": 31.1991,
        "Level": 3,
        "Sort": 1,
        "Status": 1,
        "Id": 35216
    },
    {
        "Did": 520113,
        "Parent_Did": 520100,
        "Name": "白云区",
        "Short_Name": "白云",
        "Longitude": 106.633,
        "Latitude": 26.6768,
        "Level": 3,
        "Sort": 1,
        "Status": 1,
        "Id": 37264
    },
    {
        "Did": 411602,
        "Parent_Did": 411600,
        "Name": "川汇区",
        "Short_Name": "川汇",
        "Longitude": 114.652,
        "Latitude": 33.6148,
        "Level": 3,
        "Sort": 1,
        "Status": 1,
        "Id": 23186
    },
    {
        "Did": 511602,
        "Parent_Did": 511600,
        "Name": "广安区",
        "Short_Name": "广安",
        "Longitude": 106.633,
        "Latitude": 30.4565,
        "Level": 3,
        "Sort": 1,
        "Status": 1,
        "Id": 34962
    },
    {
        "Did": 130230,
        "Parent_Did": 130200,
        "Name": "曹妃甸区",
        "Short_Name": "曹妃甸",
        "Longitude": 118.447,
        "Latitude": 39.2783,
        "Level": 3,
        "Sort": 1,
        "Status": 1,
        "Id": 1171
    },
    {
        "Did": 371402,
        "Parent_Did": 371400,
        "Name": "德城区",
        "Short_Name": "德城",
        "Longitude": 116.307,
        "Latitude": 37.4539,
        "Level": 3,
        "Sort": 1,
        "Status": 1,
        "Id": 20371
    },
    {
        "Did": 421281,
        "Parent_Did": 421200,
        "Name": "赤壁市",
        "Short_Name": "赤壁",
        "Longitude": 113.884,
        "Latitude": 29.7169,
        "Level": 3,
        "Sort": 1,
        "Status": 1,
        "Id": 24980
    },
    {
        "Did": 533122,
        "Parent_Did": 533100,
        "Name": "梁河县",
        "Short_Name": "梁河",
        "Longitude": 98.2982,
        "Latitude": 24.8074,
        "Level": 3,
        "Sort": 1,
        "Status": 1,
        "Id": 39828
    },
    {
        "Did": 711155,
        "Parent_Did": 711100,
        "Name": "八里区",
        "Short_Name": "八里",
        "Longitude": 121.509,
        "Latitude": 25.0443,
        "Level": 3,
        "Sort": 1,
        "Status": 1,
        "Id": 46228
    },
    {
        "Did": 371102,
        "Parent_Did": 371100,
        "Name": "东港区",
        "Short_Name": "东港",
        "Longitude": 119.458,
        "Latitude": 35.4262,
        "Level": 3,
        "Sort": 1,
        "Status": 1,
        "Id": 20117
    },
    {
        "Did": 441502,
        "Parent_Did": 441500,
        "Name": "城区",
        "Short_Name": "城区",
        "Longitude": 115.364,
        "Latitude": 22.7762,
        "Level": 3,
        "Sort": 1,
        "Status": 1,
        "Id": 29077
    },
    {
        "Did": 510108,
        "Parent_Did": 510100,
        "Name": "成华区",
        "Short_Name": "成华",
        "Longitude": 104.103,
        "Latitude": 30.6603,
        "Level": 3,
        "Sort": 1,
        "Status": 1,
        "Id": 32405
    },
    {
        "Did": 542327,
        "Parent_Did": 542300,
        "Name": "昂仁县",
        "Short_Name": "昂仁",
        "Longitude": 87.2358,
        "Latitude": 29.2948,
        "Level": 3,
        "Sort": 1,
        "Status": 1,
        "Id": 40341
    },
    {
        "Did": 530181,
        "Parent_Did": 530100,
        "Name": "安宁市",
        "Short_Name": "安宁",
        "Longitude": 102.486,
        "Latitude": 24.9218,
        "Level": 3,
        "Sort": 1,
        "Status": 1,
        "Id": 38550
    },
    {
        "Did": 620201402,
        "Parent_Did": 620200,
        "Name": "镜铁区",
        "Short_Name": "镜铁区",
        "Longitude": 98.2773,
        "Latitude": 39.7865,
        "Level": 3,
        "Sort": 1,
        "Status": 1,
        "Id": 42391
    },
    {
        "Did": 222426,
        "Parent_Did": 222400,
        "Name": "安图县",
        "Short_Name": "安图",
        "Longitude": 128.902,
        "Latitude": 43.111,
        "Level": 3,
        "Sort": 1,
        "Status": 1,
        "Id": 8856
    },
    {
        "Did": 653130,
        "Parent_Did": 653100,
        "Name": "巴楚县",
        "Short_Name": "巴楚",
        "Longitude": 78.5504,
        "Latitude": 39.7835,
        "Level": 3,
        "Sort": 1,
        "Status": 1,
        "Id": 45464
    },
    {
        "Did": 211381,
        "Parent_Did": 211300,
        "Name": "北票市",
        "Short_Name": "北票",
        "Longitude": 120.767,
        "Latitude": 41.8033,
        "Level": 3,
        "Sort": 1,
        "Status": 1,
        "Id": 7577
    },
    {
        "Did": 542127,
        "Parent_Did": 542100,
        "Name": "八宿县",
        "Short_Name": "八宿",
        "Longitude": 96.9179,
        "Latitude": 30.0534,
        "Level": 3,
        "Sort": 1,
        "Status": 1,
        "Id": 40089
    },
    {
        "Did": 150421,
        "Parent_Did": 150400,
        "Name": "阿鲁科尔沁旗",
        "Short_Name": "阿鲁科尔沁",
        "Longitude": 120.095,
        "Latitude": 43.8788,
        "Level": 3,
        "Sort": 1,
        "Status": 1,
        "Id": 5018
    },
    {
        "Did": 620302,
        "Parent_Did": 620300,
        "Name": "金川区",
        "Short_Name": "金川",
        "Longitude": 102.188,
        "Latitude": 38.5138,
        "Level": 3,
        "Sort": 1,
        "Status": 1,
        "Id": 42394
    },
    {
        "Did": 310113,
        "Parent_Did": 310100,
        "Name": "宝山区",
        "Short_Name": "宝山",
        "Longitude": 121.49,
        "Latitude": 31.3989,
        "Level": 3,
        "Sort": 1,
        "Status": 1,
        "Id": 10907
    },
    {
        "Did": 469027100,
        "Parent_Did": 469033,
        "Name": "抱由镇",
        "Short_Name": "抱由镇",
        "Longitude": 109.18,
        "Latitude": 18.7448,
        "Level": 3,
        "Sort": 1,
        "Status": 1,
        "Id": 31387
    },
    {
        "Did": 711221,
        "Parent_Did": 711200,
        "Name": "大同乡",
        "Short_Name": "大同",
        "Longitude": 121.509,
        "Latitude": 25.0443,
        "Level": 3,
        "Sort": 1,
        "Status": 1,
        "Id": 46240
    },
    {
        "Did": 340602,
        "Parent_Did": 340600,
        "Name": "杜集区",
        "Short_Name": "杜集",
        "Longitude": 116.834,
        "Latitude": 33.9912,
        "Level": 3,
        "Sort": 1,
        "Status": 1,
        "Id": 14497
    },
    {
        "Did": 140421,
        "Parent_Did": 140400,
        "Name": "长治县",
        "Short_Name": "长治",
        "Longitude": 113.057,
        "Latitude": 36.0524,
        "Level": 3,
        "Sort": 1,
        "Status": 1,
        "Id": 3490
    },
    {
        "Did": 230706,
        "Parent_Did": 230700,
        "Name": "翠峦区",
        "Short_Name": "翠峦",
        "Longitude": 128.672,
        "Latitude": 47.7262,
        "Level": 3,
        "Sort": 1,
        "Status": 1,
        "Id": 9890
    },
    {
        "Did": 130102,
        "Parent_Did": 130100,
        "Name": "长安区",
        "Short_Name": "长安",
        "Longitude": 114.548,
        "Latitude": 38.0475,
        "Level": 3,
        "Sort": 1,
        "Status": 1,
        "Id": 676
    },
    {
        "Did": 441821,
        "Parent_Did": 441800,
        "Name": "佛冈县",
        "Short_Name": "佛冈",
        "Longitude": 113.534,
        "Latitude": 23.8667,
        "Level": 3,
        "Sort": 1,
        "Status": 1,
        "Id": 29348
    },
    {
        "Did": 450126,
        "Parent_Did": 450100,
        "Name": "宾阳县",
        "Short_Name": "宾阳",
        "Longitude": 108.817,
        "Latitude": 23.2169,
        "Level": 3,
        "Sort": 1,
        "Status": 1,
        "Id": 29861
    },
    {
        "Did": 450721,
        "Parent_Did": 450700,
        "Name": "灵山县",
        "Short_Name": "灵山",
        "Longitude": 109.293,
        "Latitude": 22.418,
        "Level": 3,
        "Sort": 1,
        "Status": 1,
        "Id": 30373
    },
    {
        "Did": 431223,
        "Parent_Did": 431200,
        "Name": "辰溪县",
        "Short_Name": "辰溪",
        "Longitude": 110.197,
        "Latitude": 28.0055,
        "Level": 3,
        "Sort": 1,
        "Status": 1,
        "Id": 27302
    },
    {
        "Did": 440604,
        "Parent_Did": 440600,
        "Name": "禅城区",
        "Short_Name": "禅城",
        "Longitude": 113.112,
        "Latitude": 23.0196,
        "Level": 3,
        "Sort": 1,
        "Status": 1,
        "Id": 28327
    },
    {
        "Did": 522201,
        "Parent_Did": 522200,
        "Name": "碧江区",
        "Short_Name": "碧江",
        "Longitude": 109.192,
        "Latitude": 27.7187,
        "Level": 3,
        "Sort": 1,
        "Status": 1,
        "Id": 37799
    },
    {
        "Did": 130821,
        "Parent_Did": 130800,
        "Name": "承德县",
        "Short_Name": "承德",
        "Longitude": 118.172,
        "Latitude": 40.7686,
        "Level": 3,
        "Sort": 1,
        "Status": 1,
        "Id": 2472
    },
    {
        "Did": 330108,
        "Parent_Did": 330100,
        "Name": "滨江区",
        "Short_Name": "滨江",
        "Longitude": 120.211,
        "Latitude": 30.2066,
        "Level": 3,
        "Sort": 1,
        "Status": 1,
        "Id": 12713
    },
    {
        "Did": 410926,
        "Parent_Did": 410900,
        "Name": "范县",
        "Short_Name": "范县",
        "Longitude": 115.504,
        "Latitude": 35.852,
        "Level": 3,
        "Sort": 1,
        "Status": 1,
        "Id": 22185
    },
    {
        "Did": 445224,
        "Parent_Did": 445200,
        "Name": "惠来县",
        "Short_Name": "惠来",
        "Longitude": 116.296,
        "Latitude": 23.0298,
        "Level": 3,
        "Sort": 1,
        "Status": 1,
        "Id": 29609
    },
    {
        "Did": 350625,
        "Parent_Did": 350600,
        "Name": "长泰县",
        "Short_Name": "长泰",
        "Longitude": 117.756,
        "Latitude": 24.6215,
        "Level": 3,
        "Sort": 1,
        "Status": 1,
        "Id": 16554
    },
    {
        "Did": 460106,
        "Parent_Did": 460100,
        "Name": "龙华区",
        "Short_Name": "龙华",
        "Longitude": 110.33,
        "Latitude": 20.031,
        "Level": 3,
        "Sort": 1,
        "Status": 1,
        "Id": 31146
    },
    {
        "Did": 350821,
        "Parent_Did": 350800,
        "Name": "长汀县",
        "Short_Name": "长汀",
        "Longitude": 116.361,
        "Latitude": 25.8423,
        "Level": 3,
        "Sort": 1,
        "Status": 1,
        "Id": 16812
    },
    {
        "Did": 330481,
        "Parent_Did": 330400,
        "Name": "海宁市",
        "Short_Name": "海宁",
        "Longitude": 120.689,
        "Latitude": 30.5255,
        "Level": 3,
        "Sort": 1,
        "Status": 1,
        "Id": 13229
    },
    {
        "Did": 711320,
        "Parent_Did": 711300,
        "Name": "宝山乡",
        "Short_Name": "宝山",
        "Longitude": 121.509,
        "Latitude": 25.0443,
        "Level": 3,
        "Sort": 1,
        "Status": 1,
        "Id": 46253
    },
    {
        "Did": 620402,
        "Parent_Did": 620400,
        "Name": "白银区",
        "Short_Name": "白银",
        "Longitude": 104.174,
        "Latitude": 36.5457,
        "Level": 3,
        "Sort": 1,
        "Status": 1,
        "Id": 42415
    },
    {
        "Did": 421122,
        "Parent_Did": 421100,
        "Name": "红安县",
        "Short_Name": "红安",
        "Longitude": 114.615,
        "Latitude": 31.2848,
        "Level": 3,
        "Sort": 1,
        "Status": 1,
        "Id": 24752
    },
    {
        "Did": 632802,
        "Parent_Did": 632800,
        "Name": "德令哈市",
        "Short_Name": "德令哈",
        "Longitude": 97.3701,
        "Latitude": 37.3746,
        "Level": 3,
        "Sort": 1,
        "Status": 1,
        "Id": 44208
    },
    {
        "Did": 451227,
        "Parent_Did": 451200,
        "Name": "巴马瑶族自治县",
        "Short_Name": "巴马",
        "Longitude": 107.253,
        "Latitude": 24.1395,
        "Level": 3,
        "Sort": 1,
        "Status": 1,
        "Id": 30897
    },
    {
        "Did": 640424,
        "Parent_Did": 640400,
        "Name": "泾源县",
        "Short_Name": "泾源",
        "Longitude": 106.339,
        "Latitude": 35.4934,
        "Level": 3,
        "Sort": 1,
        "Status": 1,
        "Id": 44465
    },
    {
        "Did": 341621,
        "Parent_Did": 341600,
        "Name": "涡阳县",
        "Short_Name": "涡阳",
        "Longitude": 116.212,
        "Latitude": 33.5028,
        "Level": 3,
        "Sort": 1,
        "Status": 1,
        "Id": 15538
    },
    {
        "Did": 410204,
        "Parent_Did": 410200,
        "Name": "鼓楼区",
        "Short_Name": "鼓楼",
        "Longitude": 114.349,
        "Latitude": 34.7924,
        "Level": 3,
        "Sort": 1,
        "Status": 1,
        "Id": 21170
    },
    {
        "Did": 410522,
        "Parent_Did": 410500,
        "Name": "安阳县",
        "Short_Name": "安阳",
        "Longitude": 114.13,
        "Latitude": 36.1306,
        "Level": 3,
        "Sort": 1,
        "Status": 1,
        "Id": 21682
    },
    {
        "Did": 469028106,
        "Parent_Did": 469034,
        "Name": "本号镇",
        "Short_Name": "本号镇",
        "Longitude": 109.967,
        "Latitude": 18.6084,
        "Level": 3,
        "Sort": 1,
        "Status": 1,
        "Id": 31410
    },
    {
        "Did": 659001100,
        "Parent_Did": 659001,
        "Name": "北泉镇",
        "Short_Name": "北泉镇",
        "Longitude": 86.0167,
        "Latitude": 44.3338,
        "Level": 3,
        "Sort": 1,
        "Status": 1,
        "Id": 46003
    },
    {
        "Did": 361024,
        "Parent_Did": 361000,
        "Name": "崇仁县",
        "Short_Name": "崇仁",
        "Longitude": 116.059,
        "Latitude": 27.7609,
        "Level": 3,
        "Sort": 1,
        "Status": 1,
        "Id": 18613
    },
    {
        "Did": 371602,
        "Parent_Did": 371600,
        "Name": "滨城区",
        "Short_Name": "滨城",
        "Longitude": 118.02,
        "Latitude": 37.3848,
        "Level": 3,
        "Sort": 1,
        "Status": 1,
        "Id": 20662
    },
    {
        "Did": 530524,
        "Parent_Did": 530500,
        "Name": "昌宁县",
        "Short_Name": "昌宁",
        "Longitude": 99.6123,
        "Latitude": 24.8237,
        "Level": 3,
        "Sort": 1,
        "Status": 1,
        "Id": 38838
    },
    {
        "Did": 611022,
        "Parent_Did": 611000,
        "Name": "丹凤县",
        "Short_Name": "丹凤",
        "Longitude": 110.332,
        "Latitude": 33.6947,
        "Level": 3,
        "Sort": 1,
        "Status": 1,
        "Id": 42166
    },
    {
        "Did": 542527,
        "Parent_Did": 542500,
        "Name": "措勤县",
        "Short_Name": "措勤",
        "Longitude": 85.1593,
        "Latitude": 31.0168,
        "Level": 3,
        "Sort": 1,
        "Status": 1,
        "Id": 40631
    },
    {
        "Did": 341003,
        "Parent_Did": 341000,
        "Name": "黄山区",
        "Short_Name": "黄山",
        "Longitude": 118.137,
        "Latitude": 30.2945,
        "Level": 3,
        "Sort": 1,
        "Status": 1,
        "Id": 14776
    },
    {
        "Did": 653023,
        "Parent_Did": 653000,
        "Name": "阿合奇县",
        "Short_Name": "阿合奇",
        "Longitude": 78.4502,
        "Latitude": 40.9376,
        "Level": 3,
        "Sort": 1,
        "Status": 1,
        "Id": 45240
    },
    {
        "Did": 150928,
        "Parent_Did": 150900,
        "Name": "察哈尔右翼后旗",
        "Short_Name": "察哈尔右翼后",
        "Longitude": 113.191,
        "Latitude": 41.4472,
        "Level": 3,
        "Sort": 1,
        "Status": 1,
        "Id": 5817
    },
    {
        "Did": 621102,
        "Parent_Did": 621100,
        "Name": "安定区",
        "Short_Name": "安定",
        "Longitude": 104.626,
        "Latitude": 35.5798,
        "Level": 3,
        "Sort": 1,
        "Status": 1,
        "Id": 43193
    },
    {
        "Did": 451024,
        "Parent_Did": 451000,
        "Name": "德保县",
        "Short_Name": "德保",
        "Longitude": 106.618,
        "Latitude": 23.3215,
        "Level": 3,
        "Sort": 1,
        "Status": 1,
        "Id": 30650
    },
    {
        "Did": 469029100,
        "Parent_Did": 469035,
        "Name": "保城镇",
        "Short_Name": "保城镇",
        "Longitude": 109.704,
        "Latitude": 18.6416,
        "Level": 3,
        "Sort": 1,
        "Status": 1,
        "Id": 31418
    },
    {
        "Did": 350302,
        "Parent_Did": 350300,
        "Name": "城厢区",
        "Short_Name": "城厢",
        "Longitude": 119.001,
        "Latitude": 25.4337,
        "Level": 3,
        "Sort": 1,
        "Status": 1,
        "Id": 16060
    },
    {
        "Did": 500113,
        "Parent_Did": 500100,
        "Name": "巴南区",
        "Short_Name": "巴南",
        "Longitude": 106.519,
        "Latitude": 29.3819,
        "Level": 3,
        "Sort": 1,
        "Status": 1,
        "Id": 31676
    },
    {
        "Did": 632127,
        "Parent_Did": 632100,
        "Name": "化隆回族自治县",
        "Short_Name": "化隆",
        "Longitude": 102.262,
        "Latitude": 36.0983,
        "Level": 3,
        "Sort": 1,
        "Status": 1,
        "Id": 43964
    },
    {
        "Did": 410728,
        "Parent_Did": 410700,
        "Name": "长垣县",
        "Short_Name": "长垣",
        "Longitude": 114.674,
        "Latitude": 35.1962,
        "Level": 3,
        "Sort": 1,
        "Status": 1,
        "Id": 21949
    },
    {
        "Did": 610202,
        "Parent_Did": 610200,
        "Name": "王益区",
        "Short_Name": "王益",
        "Longitude": 109.076,
        "Latitude": 35.0691,
        "Level": 3,
        "Sort": 1,
        "Status": 1,
        "Id": 40893
    },
    {
        "Did": 711422,
        "Parent_Did": 711400,
        "Name": "八德市",
        "Short_Name": "八德",
        "Longitude": 121.509,
        "Latitude": 25.0443,
        "Level": 3,
        "Sort": 1,
        "Status": 1,
        "Id": 46269
    },
    {
        "Did": 210681,
        "Parent_Did": 210600,
        "Name": "东港市",
        "Short_Name": "东港",
        "Longitude": 124.149,
        "Latitude": 39.8835,
        "Level": 3,
        "Sort": 1,
        "Status": 1,
        "Id": 6846
    },
    {
        "Did": 421381,
        "Parent_Did": 421300,
        "Name": "广水市",
        "Short_Name": "广水",
        "Longitude": 113.827,
        "Latitude": 31.6177,
        "Level": 3,
        "Sort": 1,
        "Status": 1,
        "Id": 25022
    },
    {
        "Did": 411381,
        "Parent_Did": 411300,
        "Name": "邓州市",
        "Short_Name": "邓州",
        "Longitude": 112.093,
        "Latitude": 32.6816,
        "Level": 3,
        "Sort": 1,
        "Status": 1,
        "Id": 22719
    },
    {
        "Did": 510304,
        "Parent_Did": 510300,
        "Name": "大安区",
        "Short_Name": "大安",
        "Longitude": 104.783,
        "Latitude": 29.3671,
        "Level": 3,
        "Sort": 1,
        "Status": 1,
        "Id": 32703
    },
    {
        "Did": 140181,
        "Parent_Did": 140100,
        "Name": "古交市",
        "Short_Name": "古交",
        "Longitude": 112.174,
        "Latitude": 37.9085,
        "Level": 3,
        "Sort": 1,
        "Status": 1,
        "Id": 3264
    },
    {
        "Did": 330921,
        "Parent_Did": 330900,
        "Name": "岱山县",
        "Short_Name": "岱山",
        "Longitude": 122.201,
        "Latitude": 30.2429,
        "Level": 3,
        "Sort": 1,
        "Status": 1,
        "Id": 13760
    },
    {
        "Did": 511303,
        "Parent_Did": 511300,
        "Name": "高坪区",
        "Short_Name": "高坪",
        "Longitude": 106.109,
        "Latitude": 30.7818,
        "Level": 3,
        "Sort": 1,
        "Status": 1,
        "Id": 34240
    },
    {
        "Did": 370406,
        "Parent_Did": 370400,
        "Name": "山亭区",
        "Short_Name": "山亭",
        "Longitude": 117.459,
        "Latitude": 35.0961,
        "Level": 3,
        "Sort": 1,
        "Status": 1,
        "Id": 19394
    },
    {
        "Did": 522729,
        "Parent_Did": 522700,
        "Name": "长顺县",
        "Short_Name": "长顺",
        "Longitude": 106.447,
        "Latitude": 26.0221,
        "Level": 3,
        "Sort": 1,
        "Status": 1,
        "Id": 38338
    },
    {
        "Did": 532628,
        "Parent_Did": 532600,
        "Name": "富宁县",
        "Short_Name": "富宁",
        "Longitude": 105.629,
        "Latitude": 23.6265,
        "Level": 3,
        "Sort": 1,
        "Status": 1,
        "Id": 39619
    },
    {
        "Did": 533323,
        "Parent_Did": 533300,
        "Name": "福贡县",
        "Short_Name": "福贡",
        "Longitude": 98.8674,
        "Latitude": 26.9027,
        "Level": 3,
        "Sort": 1,
        "Status": 1,
        "Id": 39875
    },
    {
        "Did": 150581,
        "Parent_Did": 150500,
        "Name": "霍林郭勒市",
        "Short_Name": "霍林郭勒",
        "Longitude": 119.658,
        "Latitude": 45.5324,
        "Level": 3,
        "Sort": 1,
        "Status": 1,
        "Id": 5316
    },
    {
        "Did": 440281,
        "Parent_Did": 440200,
        "Name": "乐昌市",
        "Short_Name": "乐昌",
        "Longitude": 113.352,
        "Latitude": 25.1284,
        "Level": 3,
        "Sort": 1,
        "Status": 1,
        "Id": 28100
    },
    {
        "Did": 230523,
        "Parent_Did": 230500,
        "Name": "宝清县",
        "Short_Name": "宝清",
        "Longitude": 132.206,
        "Latitude": 46.3288,
        "Level": 3,
        "Sort": 1,
        "Status": 1,
        "Id": 9669
    },
    {
        "Did": 340222,
        "Parent_Did": 340200,
        "Name": "繁昌县",
        "Short_Name": "繁昌",
        "Longitude": 118.201,
        "Latitude": 31.0809,
        "Level": 3,
        "Sort": 1,
        "Status": 1,
        "Id": 14277
    },
    {
        "Did": 150123,
        "Parent_Did": 150100,
        "Name": "和林格尔县",
        "Short_Name": "和林格尔",
        "Longitude": 111.824,
        "Latitude": 40.3803,
        "Level": 3,
        "Sort": 1,
        "Status": 1,
        "Id": 4806
    },
    {
        "Did": 231281,
        "Parent_Did": 231200,
        "Name": "安达市",
        "Short_Name": "安达",
        "Longitude": 125.33,
        "Latitude": 46.4106,
        "Level": 3,
        "Sort": 1,
        "Status": 1,
        "Id": 10694
    },
    {
        "Did": 659002513,
        "Parent_Did": 659002,
        "Name": "阿拉尔农场",
        "Short_Name": "阿拉尔农场",
        "Longitude": 81.2661,
        "Latitude": 40.5434,
        "Level": 3,
        "Sort": 1,
        "Status": 1,
        "Id": 46023
    },
    {
        "Did": 350104,
        "Parent_Did": 350100,
        "Name": "仓山区",
        "Short_Name": "仓山",
        "Longitude": 119.321,
        "Latitude": 26.0389,
        "Level": 3,
        "Sort": 1,
        "Status": 1,
        "Id": 15816
    },
    {
        "Did": 360521,
        "Parent_Did": 360500,
        "Name": "分宜县",
        "Short_Name": "分宜",
        "Longitude": 114.675,
        "Latitude": 27.8113,
        "Level": 3,
        "Sort": 1,
        "Status": 1,
        "Id": 17609
    },
    {
        "Did": 511424,
        "Parent_Did": 511400,
        "Name": "丹棱县",
        "Short_Name": "丹棱",
        "Longitude": 103.518,
        "Latitude": 30.0128,
        "Level": 3,
        "Sort": 1,
        "Status": 1,
        "Id": 34761
    },
    {
        "Did": 652222,
        "Parent_Did": 652200,
        "Name": "巴里坤哈萨克自治县",
        "Short_Name": "巴里坤",
        "Longitude": 93.0218,
        "Latitude": 43.599,
        "Level": 3,
        "Sort": 1,
        "Status": 1,
        "Id": 44746
    },
    {
        "Did": 152922,
        "Parent_Did": 152900,
        "Name": "阿拉善右旗",
        "Short_Name": "阿拉善右",
        "Longitude": 101.672,
        "Latitude": 39.2116,
        "Level": 3,
        "Sort": 1,
        "Status": 1,
        "Id": 6091
    },
    {
        "Did": 450202,
        "Parent_Did": 450200,
        "Name": "城中区",
        "Short_Name": "城中",
        "Longitude": 109.412,
        "Latitude": 24.3123,
        "Level": 3,
        "Sort": 1,
        "Status": 1,
        "Id": 29899
    },
    {
        "Did": 450802,
        "Parent_Did": 450800,
        "Name": "港北区",
        "Short_Name": "港北",
        "Longitude": 109.595,
        "Latitude": 23.1077,
        "Level": 3,
        "Sort": 1,
        "Status": 1,
        "Id": 30412
    },
    {
        "Did": 210381,
        "Parent_Did": 210300,
        "Name": "海城市",
        "Short_Name": "海城",
        "Longitude": 122.752,
        "Latitude": 40.8525,
        "Level": 3,
        "Sort": 1,
        "Status": 1,
        "Id": 6605
    },
    {
        "Did": 510904,
        "Parent_Did": 510900,
        "Name": "安居区",
        "Short_Name": "安居",
        "Longitude": 105.459,
        "Latitude": 30.3461,
        "Level": 3,
        "Sort": 1,
        "Status": 1,
        "Id": 33741
    },
    {
        "Did": 469030200,
        "Parent_Did": 469036,
        "Name": "吊罗山乡",
        "Short_Name": "吊罗山乡",
        "Longitude": 109.883,
        "Latitude": 18.7909,
        "Level": 3,
        "Sort": 1,
        "Status": 1,
        "Id": 31439
    },
    {
        "Did": 659003509,
        "Parent_Did": 659003,
        "Name": "兵团四十九团",
        "Short_Name": "兵团四十九团",
        "Longitude": 79.078,
        "Latitude": 39.8673,
        "Level": 3,
        "Sort": 1,
        "Status": 1,
        "Id": 46031
    },
    {
        "Did": 711531,
        "Parent_Did": 711500,
        "Name": "大湖乡",
        "Short_Name": "大湖",
        "Longitude": 121.509,
        "Latitude": 25.0443,
        "Level": 3,
        "Sort": 1,
        "Status": 1,
        "Id": 46287
    },
    {
        "Did": 140202,
        "Parent_Did": 140200,
        "Name": "城区",
        "Short_Name": "城区",
        "Longitude": 113.301,
        "Latitude": 40.0905,
        "Level": 3,
        "Sort": 1,
        "Status": 1,
        "Id": 3280
    },
    {
        "Did": 620622,
        "Parent_Did": 620600,
        "Name": "古浪县",
        "Short_Name": "古浪",
        "Longitude": 102.898,
        "Latitude": 37.4706,
        "Level": 3,
        "Sort": 1,
        "Status": 1,
        "Id": 42704
    },
    {
        "Did": 420626,
        "Parent_Did": 420600,
        "Name": "保康县",
        "Short_Name": "保康",
        "Longitude": 111.262,
        "Latitude": 31.8735,
        "Level": 3,
        "Sort": 1,
        "Status": 1,
        "Id": 24273
    },
    {
        "Did": 350524,
        "Parent_Did": 350500,
        "Name": "安溪县",
        "Short_Name": "安溪",
        "Longitude": 118.186,
        "Latitude": 25.0568,
        "Level": 3,
        "Sort": 1,
        "Status": 1,
        "Id": 16338
    },
    {
        "Did": 532801,
        "Parent_Did": 532800,
        "Name": "景洪市",
        "Short_Name": "景洪",
        "Longitude": 100.798,
        "Latitude": 22.0021,
        "Level": 3,
        "Sort": 1,
        "Status": 1,
        "Id": 39634
    },
    {
        "Did": 623024,
        "Parent_Did": 623000,
        "Name": "迭部县",
        "Short_Name": "迭部",
        "Longitude": 103.221,
        "Latitude": 34.0553,
        "Level": 3,
        "Sort": 1,
        "Status": 1,
        "Id": 43730
    },
    {
        "Did": 320204,
        "Parent_Did": 320200,
        "Name": "北塘区",
        "Short_Name": "北塘",
        "Longitude": 120.295,
        "Latitude": 31.5866,
        "Level": 3,
        "Sort": 1,
        "Status": 1,
        "Id": 11220
    },
    {
        "Did": 340711,
        "Parent_Did": 340700,
        "Name": "郊区",
        "Short_Name": "郊区",
        "Longitude": 117.817,
        "Latitude": 30.9299,
        "Level": 3,
        "Sort": 1,
        "Status": 1,
        "Id": 14548
    },
    {
        "Did": 512021,
        "Parent_Did": 512000,
        "Name": "安岳县",
        "Short_Name": "安岳",
        "Longitude": 105.337,
        "Latitude": 30.0992,
        "Level": 3,
        "Sort": 1,
        "Status": 1,
        "Id": 35796
    },
    {
        "Did": 610427,
        "Parent_Did": 610400,
        "Name": "彬县",
        "Short_Name": "彬县",
        "Longitude": 108.084,
        "Latitude": 35.0342,
        "Level": 3,
        "Sort": 1,
        "Status": 1,
        "Id": 41174
    },
    {
        "Did": 530325,
        "Parent_Did": 530300,
        "Name": "富源县",
        "Short_Name": "富源",
        "Longitude": 104.257,
        "Latitude": 25.6706,
        "Level": 3,
        "Sort": 1,
        "Status": 1,
        "Id": 38616
    },
    {
        "Did": 420114,
        "Parent_Did": 420100,
        "Name": "蔡甸区",
        "Short_Name": "蔡甸",
        "Longitude": 114.029,
        "Latitude": 30.5822,
        "Level": 3,
        "Sort": 1,
        "Status": 1,
        "Id": 23769
    },
    {
        "Did": 510525,
        "Parent_Did": 510500,
        "Name": "古蔺县",
        "Short_Name": "古蔺",
        "Longitude": 105.813,
        "Latitude": 28.0395,
        "Level": 3,
        "Sort": 1,
        "Status": 1,
        "Id": 32985
    },
    {
        "Did": 460201102,
        "Parent_Did": 460200,
        "Name": "凤凰镇",
        "Short_Name": "凤凰镇",
        "Longitude": 109.453,
        "Latitude": 18.2993,
        "Level": 3,
        "Sort": 1,
        "Status": 1,
        "Id": 31194
    },
    {
        "Did": 659004501,
        "Parent_Did": 659004,
        "Name": "兵团一零二团",
        "Short_Name": "兵团一零二团",
        "Longitude": 87.5269,
        "Latitude": 44.1674,
        "Level": 3,
        "Sort": 1,
        "Status": 1,
        "Id": 46042
    },
    {
        "Did": 230306,
        "Parent_Did": 230300,
        "Name": "城子河区",
        "Short_Name": "城子河",
        "Longitude": 131.01,
        "Latitude": 45.3382,
        "Level": 3,
        "Sort": 1,
        "Status": 1,
        "Id": 9435
    },
    {
        "Did": 140931,
        "Parent_Did": 140900,
        "Name": "保德县",
        "Short_Name": "保德",
        "Longitude": 111.086,
        "Latitude": 39.0226,
        "Level": 3,
        "Sort": 1,
        "Status": 1,
        "Id": 4316
    },
    {
        "Did": 513429,
        "Parent_Did": 513400,
        "Name": "布拖县",
        "Short_Name": "布拖",
        "Longitude": 102.809,
        "Latitude": 27.7091,
        "Level": 3,
        "Sort": 1,
        "Status": 1,
        "Id": 36829
    },
    {
        "Did": 632224,
        "Parent_Did": 632200,
        "Name": "刚察县",
        "Short_Name": "刚察",
        "Longitude": 100.138,
        "Latitude": 37.3263,
        "Level": 3,
        "Sort": 1,
        "Status": 1,
        "Id": 43997
    },
    {
        "Did": 140624,
        "Parent_Did": 140600,
        "Name": "怀仁县",
        "Short_Name": "怀仁",
        "Longitude": 113.101,
        "Latitude": 39.8208,
        "Level": 3,
        "Sort": 1,
        "Status": 1,
        "Id": 3806
    },
    {
        "Did": 331003,
        "Parent_Did": 331000,
        "Name": "黄岩区",
        "Short_Name": "黄岩",
        "Longitude": 121.262,
        "Latitude": 28.6449,
        "Level": 3,
        "Sort": 1,
        "Status": 1,
        "Id": 13790
    },
    {
        "Did": 411402,
        "Parent_Did": 411400,
        "Name": "梁园区",
        "Short_Name": "梁园",
        "Longitude": 115.655,
        "Latitude": 34.4366,
        "Level": 3,
        "Sort": 1,
        "Status": 1,
        "Id": 22750
    },
    {
        "Did": 431381,
        "Parent_Did": 431300,
        "Name": "冷水江市",
        "Short_Name": "冷水江",
        "Longitude": 111.435,
        "Latitude": 27.6858,
        "Level": 3,
        "Sort": 1,
        "Status": 1,
        "Id": 27615
    },
    {
        "Did": 440923,
        "Parent_Did": 440900,
        "Name": "电白县",
        "Short_Name": "电白",
        "Longitude": 111.007,
        "Latitude": 21.5072,
        "Level": 3,
        "Sort": 1,
        "Status": 1,
        "Id": 28639
    },
    {
        "Did": 441322,
        "Parent_Did": 441300,
        "Name": "博罗县",
        "Short_Name": "博罗",
        "Longitude": 114.284,
        "Latitude": 23.1676,
        "Level": 3,
        "Sort": 1,
        "Status": 1,
        "Id": 28895
    },
    {
        "Did": 340303,
        "Parent_Did": 340300,
        "Name": "蚌山区",
        "Short_Name": "蚌山",
        "Longitude": 117.356,
        "Latitude": 32.9381,
        "Level": 3,
        "Sort": 1,
        "Status": 1,
        "Id": 14305
    },
    {
        "Did": 420982,
        "Parent_Did": 420900,
        "Name": "安陆市",
        "Short_Name": "安陆",
        "Longitude": 113.69,
        "Latitude": 31.2617,
        "Level": 3,
        "Sort": 1,
        "Status": 1,
        "Id": 24545
    },
    {
        "Did": 211224,
        "Parent_Did": 211200,
        "Name": "昌图县",
        "Short_Name": "昌图",
        "Longitude": 124.11,
        "Latitude": 42.7844,
        "Level": 3,
        "Sort": 1,
        "Status": 1,
        "Id": 7394
    },
    {
        "Did": 371203,
        "Parent_Did": 371200,
        "Name": "钢城区",
        "Short_Name": "钢城",
        "Longitude": 117.82,
        "Latitude": 36.058,
        "Level": 3,
        "Sort": 1,
        "Status": 1,
        "Id": 20194
    },
    {
        "Did": 430121,
        "Parent_Did": 430100,
        "Name": "长沙县",
        "Short_Name": "长沙",
        "Longitude": 113.08,
        "Latitude": 28.2379,
        "Level": 3,
        "Sort": 1,
        "Status": 1,
        "Id": 25314
    },
    {
        "Did": 542625,
        "Parent_Did": 542600,
        "Name": "波密县",
        "Short_Name": "波密",
        "Longitude": 95.7682,
        "Latitude": 29.8588,
        "Level": 3,
        "Sort": 1,
        "Status": 1,
        "Id": 40674
    },
    {
        "Did": 110114,
        "Parent_Did": 110100,
        "Name": "昌平区",
        "Short_Name": "昌平",
        "Longitude": 116.236,
        "Latitude": 40.2181,
        "Level": 3,
        "Sort": 1,
        "Status": 1,
        "Id": 228
    },
    {
        "Did": 150621,
        "Parent_Did": 150600,
        "Name": "达拉特旗",
        "Short_Name": "达拉特",
        "Longitude": 110.04,
        "Latitude": 40.4041,
        "Level": 3,
        "Sort": 1,
        "Status": 1,
        "Id": 5348
    },
    {
        "Did": 370502,
        "Parent_Did": 370500,
        "Name": "东营区",
        "Short_Name": "东营",
        "Longitude": 118.508,
        "Latitude": 37.4616,
        "Level": 3,
        "Sort": 1,
        "Status": 1,
        "Id": 19428
    },
    {
        "Did": 640522,
        "Parent_Did": 640500,
        "Name": "海原县",
        "Short_Name": "海原",
        "Longitude": 105.647,
        "Latitude": 36.562,
        "Level": 3,
        "Sort": 1,
        "Status": 1,
        "Id": 44516
    },
    {
        "Did": 652301,
        "Parent_Did": 652300,
        "Name": "昌吉市",
        "Short_Name": "昌吉",
        "Longitude": 87.3041,
        "Latitude": 44.0132,
        "Level": 3,
        "Sort": 1,
        "Status": 1,
        "Id": 44772
    },
    {
        "Did": 520203,
        "Parent_Did": 520200,
        "Name": "六枝特区",
        "Short_Name": "六枝特",
        "Longitude": 105.474,
        "Latitude": 26.2107,
        "Level": 3,
        "Sort": 1,
        "Status": 1,
        "Id": 37349
    },
    {
        "Did": 130304,
        "Parent_Did": 130300,
        "Name": "北戴河区",
        "Short_Name": "北戴河",
        "Longitude": 119.486,
        "Latitude": 39.8251,
        "Level": 3,
        "Sort": 1,
        "Status": 1,
        "Id": 1254
    },
    {
        "Did": 460322,
        "Parent_Did": 460300,
        "Name": "南沙群岛",
        "Short_Name": "南沙",
        "Longitude": 116.75,
        "Latitude": 11.4719,
        "Level": 3,
        "Sort": 1,
        "Status": 1,
        "Id": 31206
    },
    {
        "Did": 710109,
        "Parent_Did": 710100,
        "Name": "北投区",
        "Short_Name": "北投",
        "Longitude": 121.509,
        "Latitude": 25.0443,
        "Level": 3,
        "Sort": 1,
        "Status": 1,
        "Id": 46054
    },
    {
        "Did": 532501,
        "Parent_Did": 532500,
        "Name": "个旧市",
        "Short_Name": "个旧",
        "Longitude": 103.155,
        "Latitude": 23.3604,
        "Level": 3,
        "Sort": 1,
        "Status": 1,
        "Id": 39399
    },
    {
        "Did": 533422,
        "Parent_Did": 533400,
        "Name": "德钦县",
        "Short_Name": "德钦",
        "Longitude": 98.9151,
        "Latitude": 28.4833,
        "Level": 3,
        "Sort": 1,
        "Status": 1,
        "Id": 39911
    },
    {
        "Did": 711744,
        "Parent_Did": 711700,
        "Name": "北斗镇",
        "Short_Name": "北斗",
        "Longitude": 121.509,
        "Latitude": 25.0443,
        "Level": 3,
        "Sort": 1,
        "Status": 1,
        "Id": 46311
    },
    {
        "Did": 230205,
        "Parent_Did": 230200,
        "Name": "昂昂溪区",
        "Short_Name": "昂昂溪",
        "Longitude": 123.813,
        "Latitude": 47.1569,
        "Level": 3,
        "Sort": 1,
        "Status": 1,
        "Id": 9192
    },
    {
        "Did": 210921,
        "Parent_Did": 210900,
        "Name": "阜新蒙古族自治县",
        "Short_Name": "阜新",
        "Longitude": 121.743,
        "Latitude": 42.0586,
        "Level": 3,
        "Sort": 1,
        "Status": 1,
        "Id": 7145
    },
    {
        "Did": 431124,
        "Parent_Did": 431100,
        "Name": "道县",
        "Short_Name": "道县",
        "Longitude": 111.592,
        "Latitude": 25.5184,
        "Level": 3,
        "Sort": 1,
        "Status": 1,
        "Id": 27114
    },
    {
        "Did": 430821,
        "Parent_Did": 430800,
        "Name": "慈利县",
        "Short_Name": "慈利",
        "Longitude": 111.133,
        "Latitude": 29.4239,
        "Level": 3,
        "Sort": 1,
        "Status": 1,
        "Id": 26603
    },
    {
        "Did": 530826,
        "Parent_Did": 530800,
        "Name": "江城哈尼族彝族自治县",
        "Short_Name": "江城",
        "Longitude": 101.859,
        "Latitude": 22.5834,
        "Level": 3,
        "Sort": 1,
        "Status": 1,
        "Id": 39147
    },
    {
        "Did": 411726,
        "Parent_Did": 411700,
        "Name": "泌阳县",
        "Short_Name": "泌阳",
        "Longitude": 113.326,
        "Latitude": 32.7251,
        "Level": 3,
        "Sort": 1,
        "Status": 1,
        "Id": 23533
    },
    {
        "Did": 469001200,
        "Parent_Did": 469001,
        "Name": "畅好乡",
        "Short_Name": "畅好乡",
        "Longitude": 109.487,
        "Latitude": 18.7337,
        "Level": 3,
        "Sort": 1,
        "Status": 1,
        "Id": 31213
    },
    {
        "Did": 220623,
        "Parent_Did": 220600,
        "Name": "长白朝鲜族自治县",
        "Short_Name": "长白",
        "Longitude": 128.203,
        "Latitude": 41.4194,
        "Level": 3,
        "Sort": 1,
        "Status": 1,
        "Id": 8432
    },
    {
        "Did": 152202,
        "Parent_Did": 152200,
        "Name": "阿尔山市",
        "Short_Name": "阿尔山",
        "Longitude": 119.944,
        "Latitude": 47.177,
        "Level": 3,
        "Sort": 1,
        "Status": 1,
        "Id": 5873
    },
    {
        "Did": 420381,
        "Parent_Did": 420300,
        "Name": "丹江口市",
        "Short_Name": "丹江口",
        "Longitude": 111.514,
        "Latitude": 32.5388,
        "Level": 3,
        "Sort": 1,
        "Status": 1,
        "Id": 24049
    },
    {
        "Did": 610624,
        "Parent_Did": 610600,
        "Name": "安塞县",
        "Short_Name": "安塞",
        "Longitude": 109.325,
        "Latitude": 36.8644,
        "Level": 3,
        "Sort": 1,
        "Status": 1,
        "Id": 41457
    },
    {
        "Did": 320829,
        "Parent_Did": 320800,
        "Name": "洪泽县",
        "Short_Name": "洪泽",
        "Longitude": 118.868,
        "Latitude": 33.295,
        "Level": 3,
        "Sort": 1,
        "Status": 1,
        "Id": 12018
    },
    {
        "Did": 331127,
        "Parent_Did": 331100,
        "Name": "景宁畲族自治县",
        "Short_Name": "景宁",
        "Longitude": 119.635,
        "Latitude": 27.9772,
        "Level": 3,
        "Sort": 1,
        "Status": 1,
        "Id": 14067
    },
    {
        "Did": 411522,
        "Parent_Did": 411500,
        "Name": "光山县",
        "Short_Name": "光山",
        "Longitude": 114.904,
        "Latitude": 32.0104,
        "Level": 3,
        "Sort": 1,
        "Status": 1,
        "Id": 23027
    },
    {
        "Did": 321023,
        "Parent_Did": 321000,
        "Name": "宝应县",
        "Short_Name": "宝应",
        "Longitude": 119.321,
        "Latitude": 33.2369,
        "Level": 3,
        "Sort": 1,
        "Status": 1,
        "Id": 12276
    },