[
    {
        "Did": 652900,
        "Parent_Did": 650000,
        "Name": "阿克苏地区",
        "Short_Name": "阿克苏",
        "Longitude": 80.2651,
        "Latitude": 41.1707,
        "Level": 2,
        "Sort": 1,
        "Status": 1,
        "Id": 45056
    },
    {
        "Did": 110000,
        "Parent_Did": 0,
        "Name": "北京市",
        "Short_Name": "北京",
        "Longitude": 116.405,
        "Latitude": 39.905,
        "Level": 1,
        "Sort": 1,
        "Status": 1,
        "Id": 1
    },
    {
        "Did": 110100,
        "Parent_Did": 110000,
        "Name": "北京市",
        "Short_Name": "北京",
        "Longitude": 116.405,
        "Latitude": 39.905,
        "Level": 2,
        "Sort": 1,
        "Status": 1,
        "Id": 2
    },
    {
        "Did": 130600,
        "Parent_Did": 130000,
        "Name": "保定市",
        "Short_Name": "保定",
        "Longitude": 115.482,
        "Latitude": 38.8677,
        "Level": 2,
        "Sort": 1,
        "Status": 1,
        "Id": 1813
    },
    {
        "Did": 445100,
        "Parent_Did": 440000,
        "Name": "潮州市",
        "Short_Name": "潮州",
        "Longitude": 116.632,
        "Latitude": 23.6617,
        "Level": 2,
        "Sort": 1,
        "Status": 1,
        "Id": 29488
    },
    {
        "Did": 310100,
        "Parent_Did": 310000,
        "Name": "上海市",
        "Short_Name": "上海",
        "Longitude": 121.473,
        "Latitude": 31.2317,
        "Level": 2,
        "Sort": 1,
        "Status": 1,
        "Id": 10807
    },
    {
        "Did": 450500,
        "Parent_Did": 450000,
        "Name": "北海市",
        "Short_Name": "北海",
        "Longitude": 109.119,
        "Latitude": 21.4733,
        "Level": 2,
        "Sort": 1,
        "Status": 1,
        "Id": 30263
    },
    {
        "Did": 632600,
        "Parent_Did": 630000,
        "Name": "果洛藏族自治州",
        "Short_Name": "果洛",
        "Longitude": 100.242,
        "Latitude": 34.4736,
        "Level": 2,
        "Sort": 1,
        "Status": 1,
        "Id": 44091
    },
    {
        "Did": 520400,
        "Parent_Did": 520000,
        "Name": "安顺市",
        "Short_Name": "安顺",
        "Longitude": 105.932,
        "Latitude": 26.2455,
        "Level": 2,
        "Sort": 1,
        "Status": 1,
        "Id": 37703
    },
    {
        "Did": 120100,
        "Parent_Did": 120000,
        "Name": "天津市",
        "Short_Name": "天津",
        "Longitude": 117.19,
        "Latitude": 39.1256,
        "Level": 2,
        "Sort": 1,
        "Status": 1,
        "Id": 351
    },
    {
        "Did": 361000,
        "Parent_Did": 360000,
        "Name": "抚州市",
        "Short_Name": "抚州",
        "Longitude": 116.358,
        "Latitude": 27.9839,
        "Level": 2,
        "Sort": 1,
        "Status": 1,
        "Id": 18527
    },
    {
        "Did": 210300,
        "Parent_Did": 210000,
        "Name": "鞍山市",
        "Short_Name": "鞍山",
        "Longitude": 122.996,
        "Latitude": 41.1106,
        "Level": 2,
        "Sort": 1,
        "Status": 1,
        "Id": 6504
    },
    {
        "Did": 513200,
        "Parent_Did": 510000,
        "Name": "阿坝藏族羌族自治州",
        "Short_Name": "阿坝",
        "Longitude": 102.221,
        "Latitude": 31.8998,
        "Level": 2,
        "Sort": 1,
        "Status": 1,
        "Id": 35948
    },
    {
        "Did": 810200,
        "Parent_Did": 810000,
        "Name": "九龙",
        "Short_Name": "九龙",
        "Longitude": 114.173,
        "Latitude": 22.32,
        "Level": 2,
        "Sort": 1,
        "Status": 1,
        "Id": 46444
    },
    {
        "Did": 530500,
        "Parent_Did": 530000,
        "Name": "保山市",
        "Short_Name": "保山",
        "Longitude": 99.1671,
        "Latitude": 25.1118,
        "Level": 2,
        "Sort": 1,
        "Status": 1,
        "Id": 38771
    },
    {
        "Did": 330100,
        "Parent_Did": 330000,
        "Name": "杭州市",
        "Short_Name": "杭州",
        "Longitude": 120.154,
        "Latitude": 30.2875,
        "Level": 2,
        "Sort": 1,
        "Status": 1,
        "Id": 12661
    },
    {
        "Did": 820100,
        "Parent_Did": 820000,
        "Name": "澳门半岛",
        "Short_Name": "澳门半岛",
        "Longitude": 113.549,
        "Latitude": 22.1988,
        "Level": 2,
        "Sort": 1,
        "Status": 1,
        "Id": 46461
    },
    {
        "Did": 410500,
        "Parent_Did": 410000,
        "Name": "安阳市",
        "Short_Name": "安阳",
        "Longitude": 114.352,
        "Latitude": 36.1034,
        "Level": 2,
        "Sort": 1,
        "Status": 1,
        "Id": 21630
    },
    {
        "Did": 640400,
        "Parent_Did": 640000,
        "Name": "固原市",
        "Short_Name": "固原",
        "Longitude": 106.285,
        "Latitude": 36.0046,
        "Level": 2,
        "Sort": 1,
        "Status": 1,
        "Id": 44414
    },
    {
        "Did": 542500,
        "Parent_Did": 540000,
        "Name": "阿里地区",
        "Short_Name": "阿里",
        "Longitude": 80.1055,
        "Latitude": 32.5032,
        "Level": 2,
        "Sort": 1,
        "Status": 1,
        "Id": 40592
    },
    {
        "Did": 220800,
        "Parent_Did": 220000,
        "Name": "白城市",
        "Short_Name": "白城",
        "Longitude": 122.841,
        "Latitude": 45.619,
        "Level": 2,
        "Sort": 1,
        "Status": 1,
        "Id": 8601
    },
    {
        "Did": 140400,
        "Parent_Did": 140000,
        "Name": "长治市",
        "Short_Name": "长治",
        "Longitude": 113.114,
        "Latitude": 36.1911,
        "Level": 2,
        "Sort": 1,
        "Status": 1,
        "Id": 3489
    },
    {
        "Did": 620400,
        "Parent_Did": 620000,
        "Name": "白银市",
        "Short_Name": "白银",
        "Longitude": 104.174,
        "Latitude": 36.5457,
        "Level": 2,
        "Sort": 1,
        "Status": 1,
        "Id": 42414
    },
    {
        "Did": 350100,
        "Parent_Did": 350000,
        "Name": "福州市",
        "Short_Name": "福州",
        "Longitude": 119.306,
        "Latitude": 26.0753,
        "Level": 2,
        "Sort": 1,
        "Status": 1,
        "Id": 15793
    },
    {
        "Did": 152900,
        "Parent_Did": 150000,
        "Name": "阿拉善盟",
        "Short_Name": "阿拉善",
        "Longitude": 105.706,
        "Latitude": 38.8448,
        "Level": 2,
        "Sort": 1,
        "Status": 1,
        "Id": 6068
    },
    {
        "Did": 371600,
        "Parent_Did": 370000,
        "Name": "滨州市",
        "Short_Name": "滨州",
        "Longitude": 118.017,
        "Latitude": 37.3835,
        "Level": 2,
        "Sort": 1,
        "Status": 1,
        "Id": 20661
    },
    {
        "Did": 469030,
        "Parent_Did": 460000,
        "Name": "白沙黎族自治县",
        "Short_Name": "白沙",
        "Longitude": 109.453,
        "Latitude": 19.2246,
        "Level": 2,
        "Sort": 1,
        "Status": 1,
        "Id": 31431
    },
    {
        "Did": 320400,
        "Parent_Did": 320000,
        "Name": "常州市",
        "Short_Name": "常州",
        "Longitude": 119.947,
        "Latitude": 31.7728,
        "Level": 2,
        "Sort": 1,
        "Status": 1,
        "Id": 11464
    },
    {
        "Did": 422800,
        "Parent_Did": 420000,
        "Name": "恩施土家族苗族自治州",
        "Short_Name": "恩施",
        "Longitude": 109.487,
        "Latitude": 30.2831,
        "Level": 2,
        "Sort": 1,
        "Status": 1,
        "Id": 25042
    },
    {
        "Did": 430700,
        "Parent_Did": 430000,
        "Name": "常德市",
        "Short_Name": "常德",
        "Longitude": 111.691,
        "Latitude": 29.0402,
        "Level": 2,
        "Sort": 1,
        "Status": 1,
        "Id": 26324
    },
    {
        "Did": 610900,
        "Parent_Did": 610000,
        "Name": "安康市",
        "Short_Name": "安康",
        "Longitude": 109.029,
        "Latitude": 32.6903,
        "Level": 2,
        "Sort": 1,
        "Status": 1,
        "Id": 41940
    },
    {
        "Did": 500100,
        "Parent_Did": 500000,
        "Name": "重庆市",
        "Short_Name": "重庆",
        "Longitude": 106.505,
        "Latitude": 29.5332,
        "Level": 2,
        "Sort": 1,
        "Status": 1,
        "Id": 31453
    },
    {
        "Did": 340800,
        "Parent_Did": 340000,
        "Name": "安庆市",
        "Short_Name": "安庆",
        "Longitude": 117.044,
        "Latitude": 30.5088,
        "Level": 2,
        "Sort": 1,
        "Status": 1,
        "Id": 14568
    },
    {
        "Did": 710200,
        "Parent_Did": 710000,
        "Name": "高雄市",
        "Short_Name": "高雄",
        "Longitude": 121.509,
        "Latitude": 25.0443,
        "Level": 2,
        "Sort": 1,
        "Status": 1,
        "Id": 46058
    },
    {
        "Did": 230600,
        "Parent_Did": 230000,
        "Name": "大庆市",
        "Short_Name": "大庆",
        "Longitude": 125.113,
        "Latitude": 46.5907,
        "Level": 2,
        "Sort": 1,
        "Status": 1,
        "Id": 9719
    },
    {
        "Did": 511900,
        "Parent_Did": 510000,
        "Name": "巴中市",
        "Short_Name": "巴中",
        "Longitude": 106.754,
        "Latitude": 31.8588,
        "Level": 2,
        "Sort": 2,
        "Status": 1,
        "Id": 35590
    },
    {
        "Did": 420700,
        "Parent_Did": 420000,
        "Name": "鄂州市",
        "Short_Name": "鄂州",
        "Longitude": 114.891,
        "Latitude": 30.3965,
        "Level": 2,
        "Sort": 2,
        "Status": 1,
        "Id": 24335
    },
    {
        "Did": 410600,
        "Parent_Did": 410000,
        "Name": "鹤壁市",
        "Short_Name": "鹤壁",
        "Longitude": 114.295,
        "Latitude": 35.7482,
        "Level": 2,
        "Sort": 2,
        "Status": 1,
        "Id": 21778
    },
    {
        "Did": 232700,
        "Parent_Did": 230000,
        "Name": "大兴安岭地区",
        "Short_Name": "大兴安岭",
        "Longitude": 124.712,
        "Latitude": 52.3353,
        "Level": 2,
        "Sort": 2,
        "Status": 1,
        "Id": 10774
    },
    {
        "Did": 640200,
        "Parent_Did": 640000,
        "Name": "石嘴山市",
        "Short_Name": "石嘴山",
        "Longitude": 106.376,
        "Latitude": 39.0133,
        "Level": 2,
        "Sort": 2,
        "Status": 1,
        "Id": 44314
    },
    {
        "Did": 360700,
        "Parent_Did": 360000,
        "Name": "赣州市",
        "Short_Name": "赣州",
        "Longitude": 114.94,
        "Latitude": 25.851,
        "Level": 2,
        "Sort": 2,
        "Status": 1,
        "Id": 17694
    },
    {
        "Did": 522400,
        "Parent_Did": 520000,
        "Name": "毕节市",
        "Short_Name": "毕节",
        "Longitude": 105.285,
        "Latitude": 27.3017,
        "Level": 2,
        "Sort": 2,
        "Status": 1,
        "Id": 37956
    },
    {
        "Did": 210500,
        "Parent_Did": 210000,
        "Name": "本溪市",
        "Short_Name": "本溪",
        "Longitude": 123.771,
        "Latitude": 41.2979,
        "Level": 2,
        "Sort": 2,
        "Status": 1,
        "Id": 6725
    },
    {
        "Did": 542100,
        "Parent_Did": 540000,
        "Name": "昌都地区",
        "Short_Name": "昌都",
        "Longitude": 97.1785,
        "Latitude": 31.1369,
        "Level": 2,
        "Sort": 2,
        "Status": 1,
        "Id": 40006
    },
    {
        "Did": 712600,
        "Parent_Did": 710000,
        "Name": "花莲县",
        "Short_Name": "花莲",
        "Longitude": 121.509,
        "Latitude": 25.0443,
        "Level": 2,
        "Sort": 2,
        "Status": 1,
        "Id": 46411
    },
    {
        "Did": 120000,
        "Parent_Did": 0,
        "Name": "天津市",
        "Short_Name": "天津",
        "Longitude": 117.19,
        "Latitude": 39.1256,
        "Level": 1,
        "Sort": 2,
        "Status": 1,
        "Id": 350
    },
    {
        "Did": 810100,
        "Parent_Did": 810000,
        "Name": "香港岛",
        "Short_Name": "香港岛",
        "Longitude": 114.173,
        "Latitude": 22.32,
        "Level": 2,
        "Sort": 2,
        "Status": 1,
        "Id": 46439
    },
    {
        "Did": 130900,
        "Parent_Did": 130000,
        "Name": "沧州市",
        "Short_Name": "沧州",
        "Longitude": 116.857,
        "Latitude": 38.3106,
        "Level": 2,
        "Sort": 2,
        "Status": 1,
        "Id": 2671
    },
    {
        "Did": 532300,
        "Parent_Did": 530000,
        "Name": "楚雄彝族自治州",
        "Short_Name": "楚雄",
        "Longitude": 101.546,
        "Latitude": 25.042,
        "Level": 2,
        "Sort": 2,
        "Status": 1,
        "Id": 39284
    },
    {
        "Did": 820200,
        "Parent_Did": 820000,
        "Name": "离岛",
        "Short_Name": "离岛",
        "Longitude": 113.549,
        "Latitude": 22.199,
        "Level": 2,
        "Sort": 2,
        "Status": 1,
        "Id": 46462
    },
    {
        "Did": 320800,
        "Parent_Did": 320000,
        "Name": "淮安市",
        "Short_Name": "淮安",
        "Longitude": 119.021,
        "Latitude": 33.5975,
        "Level": 2,
        "Sort": 2,
        "Status": 1,
        "Id": 11904
    },
    {
        "Did": 451000,
        "Parent_Did": 450000,
        "Name": "百色市",
        "Short_Name": "百色",
        "Longitude": 106.616,
        "Latitude": 23.8977,
        "Level": 2,
        "Sort": 2,
        "Status": 1,
        "Id": 30603
    },
    {
        "Did": 430100,
        "Parent_Did": 430000,
        "Name": "长沙市",
        "Short_Name": "长沙",
        "Longitude": 112.982,
        "Latitude": 28.1941,
        "Level": 2,
        "Sort": 2,
        "Status": 1,
        "Id": 25233
    },
    {
        "Did": 371400,
        "Parent_Did": 370000,
        "Name": "德州市",
        "Short_Name": "德州",
        "Longitude": 116.307,
        "Latitude": 37.454,
        "Level": 2,
        "Sort": 2,
        "Status": 1,
        "Id": 20370
    },
    {
        "Did": 350800,
        "Parent_Did": 350000,
        "Name": "龙岩市",
        "Short_Name": "龙岩",
        "Longitude": 117.03,
        "Latitude": 25.0916,
        "Level": 2,
        "Sort": 2,
        "Status": 1,
        "Id": 16790
    },
    {
        "Did": 659002,
        "Parent_Did": 650000,
        "Name": "阿拉尔市",
        "Short_Name": "阿拉尔",
        "Longitude": 81.2859,
        "Latitude": 40.5419,
        "Level": 2,
        "Sort": 2,
        "Status": 1,
        "Id": 46006
    },
    {
        "Did": 621100,
        "Parent_Did": 620000,
        "Name": "定西市",
        "Short_Name": "定西",
        "Longitude": 104.626,
        "Latitude": 35.5796,
        "Level": 2,
        "Sort": 2,
        "Status": 1,
        "Id": 43192
    },
    {
        "Did": 632200,
        "Parent_Did": 630000,
        "Name": "海北藏族自治州",
        "Short_Name": "海北",
        "Longitude": 100.901,
        "Latitude": 36.9594,
        "Level": 2,
        "Sort": 2,
        "Status": 1,
        "Id": 43966
    },
    {
        "Did": 220600,
        "Parent_Did": 220000,
        "Name": "白山市",
        "Short_Name": "白山",
        "Longitude": 126.428,
        "Latitude": 41.9425,
        "Level": 2,
        "Sort": 2,
        "Status": 1,
        "Id": 8391
    },
    {
        "Did": 140200,
        "Parent_Did": 140000,
        "Name": "大同市",
        "Short_Name": "大同",
        "Longitude": 113.295,
        "Latitude": 40.0903,
        "Level": 2,
        "Sort": 2,
        "Status": 1,
        "Id": 3279
    },
    {
        "Did": 330500,
        "Parent_Did": 330000,
        "Name": "湖州市",
        "Short_Name": "湖州",
        "Longitude": 120.102,
        "Latitude": 30.8672,
        "Level": 2,
        "Sort": 2,
        "Status": 1,
        "Id": 13265
    },
    {
        "Did": 340300,
        "Parent_Did": 340000,
        "Name": "蚌埠市",
        "Short_Name": "蚌埠",
        "Longitude": 117.363,
        "Latitude": 32.9397,
        "Level": 2,
        "Sort": 2,
        "Status": 1,
        "Id": 14295
    },
    {
        "Did": 469035,
        "Parent_Did": 460000,
        "Name": "保亭黎族苗族自治县",
        "Short_Name": "保亭",
        "Longitude": 109.702,
        "Latitude": 18.6364,
        "Level": 2,
        "Sort": 2,
        "Status": 1,
        "Id": 31450
    },
    {
        "Did": 150200,
        "Parent_Did": 150000,
        "Name": "包头市",
        "Short_Name": "包头",
        "Longitude": 109.84,
        "Latitude": 40.6582,
        "Level": 2,
        "Sort": 2,
        "Status": 1,
        "Id": 4837
    },
    {
        "Did": 610300,
        "Parent_Did": 610000,
        "Name": "宝鸡市",
        "Short_Name": "宝鸡",
        "Longitude": 107.145,
        "Latitude": 34.3693,
        "Level": 2,
        "Sort": 2,
        "Status": 1,
        "Id": 40938
    },
    {
        "Did": 441900,
        "Parent_Did": 440000,
        "Name": "东莞市",
        "Short_Name": "东莞",
        "Longitude": 113.746,
        "Latitude": 23.0462,
        "Level": 2,
        "Sort": 2,
        "Status": 1,
        "Id": 29426
    },
    {
        "Did": 150800,
        "Parent_Did": 150000,
        "Name": "巴彦淖尔市",
        "Short_Name": "巴彦淖尔",
        "Longitude": 107.417,
        "Latitude": 40.7574,
        "Level": 2,
        "Sort": 3,
        "Status": 1,
        "Id": 5632
    },
    {
        "Did": 532900,
        "Parent_Did": 530000,
        "Name": "大理白族自治州",
        "Short_Name": "大理",
        "Longitude": 100.226,
        "Latitude": 25.5894,
        "Level": 2,
        "Sort": 3,
        "Status": 1,
        "Id": 39682
    },
    {
        "Did": 320700,
        "Parent_Did": 320000,
        "Name": "连云港市",
        "Short_Name": "连云港",
        "Longitude": 119.179,
        "Latitude": 34.6,
        "Level": 2,
        "Sort": 3,
        "Status": 1,
        "Id": 11791
    },
    {
        "Did": 211300,
        "Parent_Did": 210000,
        "Name": "朝阳市",
        "Short_Name": "朝阳",
        "Longitude": 120.451,
        "Latitude": 41.5768,
        "Level": 2,
        "Sort": 3,
        "Status": 1,
        "Id": 7462
    },
    {
        "Did": 520100,
        "Parent_Did": 520000,
        "Name": "贵阳市",
        "Short_Name": "贵阳",
        "Longitude": 106.713,
        "Latitude": 26.5783,
        "Level": 2,
        "Sort": 3,
        "Status": 1,
        "Id": 37166
    },
    {
        "Did": 442101,
        "Parent_Did": 440000,
        "Name": "东沙群岛",
        "Short_Name": "东沙",
        "Longitude": 112.553,
        "Latitude": 21.8105,
        "Level": 2,
        "Sort": 3,
        "Status": 1,
        "Id": 29487
    },
    {
        "Did": 140500,
        "Parent_Did": 140000,
        "Name": "晋城市",
        "Short_Name": "晋城",
        "Longitude": 112.851,
        "Latitude": 35.4976,
        "Level": 2,
        "Sort": 3,
        "Status": 1,
        "Id": 3639
    },
    {
        "Did": 451400,
        "Parent_Did": 450000,
        "Name": "崇左市",
        "Short_Name": "崇左",
        "Longitude": 107.354,
        "Latitude": 22.4041,
        "Level": 2,
        "Sort": 3,
        "Status": 1,
        "Id": 31042
    },
    {
        "Did": 640300,
        "Parent_Did": 640000,
        "Name": "吴忠市",
        "Short_Name": "吴忠",
        "Longitude": 106.199,
        "Latitude": 37.9862,
        "Level": 2,
        "Sort": 3,
        "Status": 1,
        "Id": 44358
    },
    {
        "Did": 610700,
        "Parent_Did": 610000,
        "Name": "汉中市",
        "Short_Name": "汉中",
        "Longitude": 107.029,
        "Latitude": 33.0777,
        "Level": 2,
        "Sort": 3,
        "Status": 1,
        "Id": 41543
    },
    {
        "Did": 510100,
        "Parent_Did": 510000,
        "Name": "成都市",
        "Short_Name": "成都",
        "Longitude": 104.066,
        "Latitude": 30.6595,
        "Level": 2,
        "Sort": 3,
        "Status": 1,
        "Id": 32338
    },
    {
        "Did": 654300,
        "Parent_Did": 650000,
        "Name": "阿勒泰地区",
        "Short_Name": "阿勒泰",
        "Longitude": 88.1396,
        "Latitude": 47.8484,
        "Level": 2,
        "Sort": 3,
        "Status": 1,
        "Id": 45920
    },
    {
        "Did": 360800,
        "Parent_Did": 360000,
        "Name": "吉安市",
        "Short_Name": "吉安",
        "Longitude": 114.986,
        "Latitude": 27.1117,
        "Level": 2,
        "Sort": 3,
        "Status": 1,
        "Id": 18023
    },
    {
        "Did": 220100,
        "Parent_Did": 220000,
        "Name": "长春市",
        "Short_Name": "长春",
        "Longitude": 125.325,
        "Latitude": 43.8868,
        "Level": 2,
        "Sort": 3,
        "Status": 1,
        "Id": 7786
    },
    {
        "Did": 810300,
        "Parent_Did": 810000,
        "Name": "新界",
        "Short_Name": "新界",
        "Longitude": 114.173,
        "Latitude": 22.32,
        "Level": 2,
        "Sort": 3,
        "Status": 1,
        "Id": 46450
    },
    {
        "Did": 710900,
        "Parent_Did": 710000,
        "Name": "嘉义市",
        "Short_Name": "嘉义",
        "Longitude": 121.509,
        "Latitude": 25.0443,
        "Level": 2,
        "Sort": 3,
        "Status": 1,
        "Id": 46199
    },
    {
        "Did": 330400,
        "Parent_Did": 330000,
        "Name": "嘉兴市",
        "Short_Name": "嘉兴",
        "Longitude": 120.751,
        "Latitude": 30.7627,
        "Level": 2,
        "Sort": 3,
        "Status": 1,
        "Id": 13184
    },
    {
        "Did": 130800,
        "Parent_Did": 130000,
        "Name": "承德市",
        "Short_Name": "承德",
        "Longitude": 117.939,
        "Latitude": 40.9762,
        "Level": 2,
        "Sort": 3,
        "Status": 1,
        "Id": 2440
    },
    {
        "Did": 623000,
        "Parent_Did": 620000,
        "Name": "甘南藏族自治州",
        "Short_Name": "甘南",
        "Longitude": 102.911,
        "Latitude": 34.9864,
        "Level": 2,
        "Sort": 3,
        "Status": 1,
        "Id": 43665
    },
    {
        "Did": 341600,
        "Parent_Did": 340000,
        "Name": "亳州市",
        "Short_Name": "亳州",
        "Longitude": 115.783,
        "Latitude": 33.8693,
        "Level": 2,
        "Sort": 3,
        "Status": 1,
        "Id": 15509
    },
    {
        "Did": 421100,
        "Parent_Did": 420000,
        "Name": "黄冈市",
        "Short_Name": "黄冈",
        "Longitude": 114.879,
        "Latitude": 30.4477,
        "Level": 2,
        "Sort": 3,
        "Status": 1,
        "Id": 24727
    },
    {
        "Did": 431000,
        "Parent_Did": 430000,
        "Name": "郴州市",
        "Short_Name": "郴州",
        "Longitude": 113.032,
        "Latitude": 25.7936,
        "Level": 2,
        "Sort": 3,
        "Status": 1,
        "Id": 26784
    },
    {
        "Did": 130000,
        "Parent_Did": 0,
        "Name": "河北省",
        "Short_Name": "河北",
        "Longitude": 114.502,
        "Latitude": 38.0455,
        "Level": 1,
        "Sort": 3,
        "Status": 1,
        "Id": 674
    },
    {
        "Did": 230100,
        "Parent_Did": 230000,
        "Name": "哈尔滨市",
        "Short_Name": "哈尔滨",
        "Longitude": 126.642,
        "Latitude": 45.757,
        "Level": 2,
        "Sort": 3,
        "Status": 1,
        "Id": 8873
    },
    {
        "Did": 632100,
        "Parent_Did": 630000,
        "Name": "海东市",
        "Short_Name": "海东",
        "Longitude": 102.103,
        "Latitude": 36.5029,
        "Level": 2,
        "Sort": 3,
        "Status": 1,
        "Id": 43959
    },
    {
        "Did": 469031,
        "Parent_Did": 460000,
        "Name": "昌江黎族自治县",
        "Short_Name": "昌江",
        "Longitude": 109.053,
        "Latitude": 19.261,
        "Level": 2,
        "Sort": 3,
        "Status": 1,
        "Id": 31447
    },
    {
        "Did": 370500,
        "Parent_Did": 370000,
        "Name": "东营市",
        "Short_Name": "东营",
        "Longitude": 118.665,
        "Latitude": 37.4346,
        "Level": 2,
        "Sort": 3,
        "Status": 1,
        "Id": 19427
    },
    {
        "Did": 410800,
        "Parent_Did": 410000,
        "Name": "焦作市",
        "Short_Name": "焦作",
        "Longitude": 113.238,
        "Latitude": 35.239,
        "Level": 2,
        "Sort": 3,
        "Status": 1,
        "Id": 22011
    },
    {
        "Did": 540100,
        "Parent_Did": 540000,
        "Name": "拉萨市",
        "Short_Name": "拉萨",
        "Longitude": 91.1322,
        "Latitude": 29.6604,
        "Level": 2,
        "Sort": 3,
        "Status": 1,
        "Id": 39932
    },
    {
        "Did": 350700,
        "Parent_Did": 350000,
        "Name": "南平市",
        "Short_Name": "南平",
        "Longitude": 118.178,
        "Latitude": 26.6356,
        "Level": 2,
        "Sort": 3,
        "Status": 1,
        "Id": 16639
    },
    {
        "Did": 632500,
        "Parent_Did": 630000,
        "Name": "海南藏族自治州",
        "Short_Name": "海南藏族",
        "Longitude": 100.62,
        "Latitude": 36.2804,
        "Level": 2,
        "Sort": 4,
        "Status": 1,
        "Id": 44042
    },
    {
        "Did": 371700,
        "Parent_Did": 370000,
        "Name": "菏泽市",
        "Short_Name": "菏泽",
        "Longitude": 115.469,
        "Latitude": 35.2465,
        "Level": 2,
        "Sort": 4,
        "Status": 1,
        "Id": 20761
    },
    {
        "Did": 220200,
        "Parent_Did": 220000,
        "Name": "吉林市",
        "Short_Name": "吉林",
        "Longitude": 126.553,
        "Latitude": 43.8436,
        "Level": 2,
        "Sort": 4,
        "Status": 1,
        "Id": 7963
    },
    {
        "Did": 350900,
        "Parent_Did": 350000,
        "Name": "宁德市",
        "Short_Name": "宁德",
        "Longitude": 119.527,
        "Latitude": 26.6592,
        "Level": 2,
        "Sort": 4,
        "Status": 1,
        "Id": 16932
    },
    {
        "Did": 420200,
        "Parent_Did": 420000,
        "Name": "黄石市",
        "Short_Name": "黄石",
        "Longitude": 115.077,
        "Latitude": 30.2201,
        "Level": 2,
        "Sort": 4,
        "Status": 1,
        "Id": 23848
    },
    {
        "Did": 230400,
        "Parent_Did": 230000,
        "Name": "鹤岗市",
        "Short_Name": "鹤岗",
        "Longitude": 130.277,
        "Latitude": 47.3321,
        "Level": 2,
        "Sort": 4,
        "Status": 1,
        "Id": 9515
    },
    {
        "Did": 320100,
        "Parent_Did": 320000,
        "Name": "南京市",
        "Short_Name": "南京",
        "Longitude": 118.767,
        "Latitude": 32.0415,
        "Level": 2,
        "Sort": 4,
        "Status": 1,
        "Id": 11056
    },
    {
        "Did": 430400,
        "Parent_Did": 430000,
        "Name": "衡阳市",
        "Short_Name": "衡阳",
        "Longitude": 112.608,
        "Latitude": 26.9004,
        "Level": 2,
        "Sort": 4,
        "Status": 1,
        "Id": 25651
    },
    {
        "Did": 130400,
        "Parent_Did": 130000,
        "Name": "邯郸市",
        "Short_Name": "邯郸",
        "Longitude": 114.491,
        "Latitude": 36.6123,
        "Level": 2,
        "Sort": 4,
        "Status": 1,
        "Id": 1333
    },
    {
        "Did": 511700,
        "Parent_Did": 510000,
        "Name": "达州市",
        "Short_Name": "达州",
        "Longitude": 107.502,
        "Latitude": 31.2095,
        "Level": 2,
        "Sort": 4,
        "Status": 1,
        "Id": 35136
    },
    {
        "Did": 360200,
        "Parent_Did": 360000,
        "Name": "景德镇市",
        "Short_Name": "景德镇",
        "Longitude": 117.215,
        "Latitude": 29.2926,
        "Level": 2,
        "Sort": 4,
        "Status": 1,
        "Id": 17219
    },
    {
        "Did": 140000,
        "Parent_Did": 0,
        "Name": "山西省",
        "Short_Name": "山西",
        "Longitude": 112.549,
        "Latitude": 37.857,
        "Level": 1,
        "Sort": 4,
        "Status": 1,
        "Id": 3155
    },
    {
        "Did": 410881,
        "Parent_Did": 410000,
        "Name": "济源市",
        "Short_Name": "济源",
        "Longitude": 112.59,
        "Latitude": 35.0904,
        "Level": 2,
        "Sort": 4,
        "Status": 1,
        "Id": 22106
    },
    {
        "Did": 450600,
        "Parent_Did": 450000,
        "Name": "防城港市",
        "Short_Name": "防城港",
        "Longitude": 108.345,
        "Latitude": 21.6146,
        "Level": 2,
        "Sort": 4,
        "Status": 1,
        "Id": 30298
    },
    {
        "Did": 150400,
        "Parent_Did": 150000,
        "Name": "赤峰市",
        "Short_Name": "赤峰",
        "Longitude": 118.957,
        "Latitude": 42.2753,
        "Level": 2,
        "Sort": 4,
        "Status": 1,
        "Id": 4964
    },
    {
        "Did": 533100,
        "Parent_Did": 530000,
        "Name": "德宏傣族景颇族自治州",
        "Short_Name": "德宏",
        "Longitude": 98.5784,
        "Latitude": 24.4367,
        "Level": 2,
        "Sort": 4,
        "Status": 1,
        "Id": 39807
    },
    {
        "Did": 652800,
        "Parent_Did": 650000,
        "Name": "巴音郭楞蒙古自治州",
        "Short_Name": "巴音郭楞",
        "Longitude": 86.151,
        "Latitude": 41.7686,
        "Level": 2,
        "Sort": 4,
        "Status": 1,
        "Id": 44927
    },
    {
        "Did": 611000,
        "Parent_Did": 610000,
        "Name": "商洛市",
        "Short_Name": "商洛",
        "Longitude": 109.94,
        "Latitude": 33.8683,
        "Level": 2,
        "Sort": 4,
        "Status": 1,
        "Id": 42112
    },
    {
        "Did": 620200,
        "Parent_Did": 620000,
        "Name": "嘉峪关市",
        "Short_Name": "嘉峪关",
        "Longitude": 98.2773,
        "Latitude": 39.7865,
        "Level": 2,
        "Sort": 4,
        "Status": 1,
        "Id": 42386
    },
    {
        "Did": 330700,
        "Parent_Did": 330000,
        "Name": "金华市",
        "Short_Name": "金华",
        "Longitude": 119.65,
        "Latitude": 29.0895,
        "Level": 2,
        "Sort": 4,
        "Status": 1,
        "Id": 13464
    },
    {
        "Did": 469027,
        "Parent_Did": 460000,
        "Name": "澄迈县",
        "Short_Name": "澄迈",
        "Longitude": 110.007,
        "Latitude": 19.7371,
        "Level": 2,
        "Sort": 4,
        "Status": 1,
        "Id": 31386
    },
    {
        "Did": 440600,
        "Parent_Did": 440000,
        "Name": "佛山市",
        "Short_Name": "佛山",
        "Longitude": 113.123,
        "Latitude": 23.0288,
        "Level": 2,
        "Sort": 4,
        "Status": 1,
        "Id": 28326
    },
    {
        "Did": 210200,
        "Parent_Did": 210000,
        "Name": "大连市",
        "Short_Name": "大连",
        "Longitude": 121.619,
        "Latitude": 38.9146,
        "Level": 2,
        "Sort": 4,
        "Status": 1,
        "Id": 6329
    },
    {
        "Did": 542600,
        "Parent_Did": 540000,
        "Name": "林芝地区",
        "Short_Name": "林芝",
        "Longitude": 94.3624,
        "Latitude": 29.6547,
        "Level": 2,
        "Sort": 4,
        "Status": 1,
        "Id": 40637
    },
    {
        "Did": 520200,
        "Parent_Did": 520000,
        "Name": "六盘水市",
        "Short_Name": "六盘水",
        "Longitude": 104.847,
        "Latitude": 26.5846,
        "Level": 2,
        "Sort": 4,
        "Status": 1,
        "Id": 37335
    },
    {
        "Did": 640100,
        "Parent_Did": 640000,
        "Name": "银川市",
        "Short_Name": "银川",
        "Longitude": 106.278,
        "Latitude": 38.4664,
        "Level": 2,
        "Sort": 4,
        "Status": 1,
        "Id": 44248
    },
    {
        "Did": 140700,
        "Parent_Did": 140000,
        "Name": "晋中市",
        "Short_Name": "晋中",
        "Longitude": 112.736,
        "Latitude": 37.6965,
        "Level": 2,
        "Sort": 4,
        "Status": 1,
        "Id": 3819
    },
    {
        "Did": 711900,
        "Parent_Did": 710000,
        "Name": "嘉义县",
        "Short_Name": "嘉义",
        "Longitude": 121.509,
        "Latitude": 25.0443,
        "Level": 2,
        "Sort": 4,
        "Status": 1,
        "Id": 46320
    },
    {
        "Did": 341700,
        "Parent_Did": 340000,
        "Name": "池州市",
        "Short_Name": "池州",
        "Longitude": 117.489,
        "Latitude": 30.656,
        "Level": 2,
        "Sort": 4,
        "Status": 1,
        "Id": 15614
    },
    {
        "Did": 469003,
        "Parent_Did": 460000,
        "Name": "儋州市",
        "Short_Name": "儋州",
        "Longitude": 109.577,
        "Latitude": 19.5175,
        "Level": 2,
        "Sort": 5,
        "Status": 1,
        "Id": 31234
    },
    {
        "Did": 141000,
        "Parent_Did": 140000,
        "Name": "临汾市",
        "Short_Name": "临汾",
        "Longitude": 111.518,
        "Latitude": 36.0841,
        "Level": 2,
        "Sort": 5,
        "Status": 1,
        "Id": 4366
    },
    {
        "Did": 370100,
        "Parent_Did": 370000,
        "Name": "济南市",
        "Short_Name": "济南",
        "Longitude": 117.001,
        "Latitude": 36.6758,
        "Level": 2,
        "Sort": 5,
        "Status": 1,
        "Id": 18962
    },
    {
        "Did": 542400,
        "Parent_Did": 540000,
        "Name": "那曲地区",
        "Short_Name": "那曲",
        "Longitude": 92.0602,
        "Latitude": 31.476,
        "Level": 2,
        "Sort": 5,
        "Status": 1,
        "Id": 40473
    },
    {
        "Did": 341100,
        "Parent_Did": 340000,
        "Name": "滁州市",
        "Short_Name": "滁州",
        "Longitude": 118.316,
        "Latitude": 32.3036,
        "Level": 2,
        "Sort": 5,
        "Status": 1,
        "Id": 14881
    },
    {
        "Did": 420800,
        "Parent_Did": 420000,
        "Name": "荆门市",
        "Short_Name": "荆门",
        "Longitude": 112.204,
        "Latitude": 31.0354,
        "Level": 2,
        "Sort": 5,
        "Status": 1,
        "Id": 24366
    },
    {
        "Did": 220400,
        "Parent_Did": 220000,
        "Name": "辽源市",
        "Short_Name": "辽源",
        "Longitude": 125.145,
        "Latitude": 42.9027,
        "Level": 2,
        "Sort": 5,
        "Status": 1,
        "Id": 8246
    },
    {
        "Did": 522600,
        "Parent_Did": 520000,
        "Name": "黔东南苗族侗族自治州",
        "Short_Name": "黔东南",
        "Longitude": 107.977,
        "Latitude": 26.5834,
        "Level": 2,
        "Sort": 5,
        "Status": 1,
        "Id": 37965
    },
    {
        "Did": 652700,
        "Parent_Did": 650000,
        "Name": "博尔塔拉蒙古自治州",
        "Short_Name": "博尔塔拉",
        "Longitude": 82.0748,
        "Latitude": 44.9033,
        "Level": 2,
        "Sort": 5,
        "Status": 1,
        "Id": 44886
    },
    {
        "Did": 331100,
        "Parent_Did": 330000,
        "Name": "丽水市",
        "Short_Name": "丽水",
        "Longitude": 119.922,
        "Latitude": 28.452,
        "Level": 2,
        "Sort": 5,
        "Status": 1,
        "Id": 13925
    },
    {
        "Did": 431200,
        "Parent_Did": 430000,
        "Name": "怀化市",
        "Short_Name": "怀化",
        "Longitude": 109.978,
        "Latitude": 27.5501,
        "Level": 2,
        "Sort": 5,
        "Status": 1,
        "Id": 27238
    },
    {
        "Did": 710700,
        "Parent_Did": 710000,
        "Name": "基隆市",
        "Short_Name": "基隆",
        "Longitude": 121.509,
        "Latitude": 25.0443,
        "Level": 2,
        "Sort": 5,
        "Status": 1,
        "Id": 46187
    },
    {
        "Did": 320600,
        "Parent_Did": 320000,
        "Name": "南通市",
        "Short_Name": "南通",
        "Longitude": 120.865,
        "Latitude": 32.0162,
        "Level": 2,
        "Sort": 5,
        "Status": 1,
        "Id": 11640
    },
    {
        "Did": 150000,
        "Parent_Did": 0,
        "Name": "内蒙古自治区",
        "Short_Name": "内蒙古",
        "Longitude": 111.671,
        "Latitude": 40.8183,
        "Level": 1,
        "Sort": 5,
        "Status": 1,
        "Id": 4737
    },
    {
        "Did": 210600,
        "Parent_Did": 210000,
        "Name": "丹东市",
        "Short_Name": "丹东",
        "Longitude": 124.383,
        "Latitude": 40.1243,
        "Level": 2,
        "Sort": 5,
        "Status": 1,
        "Id": 6790
    },
    {
        "Did": 231100,
        "Parent_Did": 230000,
        "Name": "黑河市",
        "Short_Name": "黑河",
        "Longitude": 127.499,
        "Latitude": 50.2496,
        "Level": 2,
        "Sort": 5,
        "Status": 1,
        "Id": 10376
    },
    {
        "Did": 620300,
        "Parent_Did": 620000,
        "Name": "金昌市",
        "Short_Name": "金昌",
        "Longitude": 102.188,
        "Latitude": 38.5142,
        "Level": 2,
        "Sort": 5,
        "Status": 1,
        "Id": 42393
    },
    {
        "Did": 410200,
        "Parent_Did": 410000,
        "Name": "开封市",
        "Short_Name": "开封",
        "Longitude": 114.341,
        "Latitude": 34.7971,
        "Level": 2,
        "Sort": 5,
        "Status": 1,
        "Id": 21153
    },
    {
        "Did": 632800,
        "Parent_Did": 630000,
        "Name": "海西蒙古族藏族自治州",
        "Short_Name": "海西",
        "Longitude": 97.3708,
        "Latitude": 37.3747,
        "Level": 2,
        "Sort": 5,
        "Status": 1,
        "Id": 44195
    },
    {
        "Did": 440100,
        "Parent_Did": 440000,
        "Name": "广州市",
        "Short_Name": "广州",
        "Longitude": 113.281,
        "Latitude": 23.1252,
        "Level": 2,
        "Sort": 5,
        "Status": 1,
        "Id": 27833
    },
    {
        "Did": 350300,
        "Parent_Did": 350000,
        "Name": "莆田市",
        "Short_Name": "莆田",
        "Longitude": 119.008,
        "Latitude": 25.431,
        "Level": 2,
        "Sort": 5,
        "Status": 1,
        "Id": 16059
    },
    {
        "Did": 610200,
        "Parent_Did": 610000,
        "Name": "铜川市",
        "Short_Name": "铜川",
        "Longitude": 108.98,
        "Latitude": 34.9166,
        "Level": 2,
        "Sort": 5,
        "Status": 1,
        "Id": 40892
    },
    {
        "Did": 360400,
        "Parent_Did": 360000,
        "Name": "九江市",
        "Short_Name": "九江",
        "Longitude": 115.993,
        "Latitude": 29.712,
        "Level": 2,
        "Sort": 5,
        "Status": 1,
        "Id": 17347
    },
    {
        "Did": 640500,
        "Parent_Did": 640000,
        "Name": "中卫市",
        "Short_Name": "中卫",
        "Longitude": 105.19,
        "Latitude": 37.5149,
        "Level": 2,
        "Sort": 5,
        "Status": 1,
        "Id": 44486
    },
    {
        "Did": 150600,
        "Parent_Did": 150000,
        "Name": "鄂尔多斯市",
        "Short_Name": "鄂尔多斯",
        "Longitude": 109.99,
        "Latitude": 39.8172,
        "Level": 2,
        "Sort": 5,
        "Status": 1,
        "Id": 5323
    },
    {
        "Did": 450800,
        "Parent_Did": 450000,
        "Name": "贵港市",
        "Short_Name": "贵港",
        "Longitude": 109.602,
        "Latitude": 23.0936,
        "Level": 2,
        "Sort": 5,
        "Status": 1,
        "Id": 30411
    },
    {
        "Did": 131100,
        "Parent_Did": 130000,
        "Name": "衡水市",
        "Short_Name": "衡水",
        "Longitude": 115.666,
        "Latitude": 37.7351,
        "Level": 2,
        "Sort": 5,
        "Status": 1,
        "Id": 3020
    },
    {
        "Did": 533400,
        "Parent_Did": 530000,
        "Name": "迪庆藏族自治州",
        "Short_Name": "迪庆",
        "Longitude": 99.7065,
        "Latitude": 27.8269,
        "Level": 2,
        "Sort": 5,
        "Status": 1,
        "Id": 39898
    },
    {
        "Did": 510600,
        "Parent_Did": 510000,
        "Name": "德阳市",
        "Short_Name": "德阳",
        "Longitude": 104.399,
        "Latitude": 31.128,
        "Level": 2,
        "Sort": 5,
        "Status": 1,
        "Id": 33012
    },
    {
        "Did": 421000,
        "Parent_Did": 420000,
        "Name": "荆州市",
        "Short_Name": "荆州",
        "Longitude": 112.238,
        "Latitude": 30.3269,
        "Level": 2,
        "Sort": 6,
        "Status": 1,
        "Id": 24590
    },
    {
        "Did": 610500,
        "Parent_Did": 610000,
        "Name": "渭南市",
        "Short_Name": "渭南",
        "Longitude": 109.503,
        "Latitude": 34.4994,
        "Level": 2,
        "Sort": 6,
        "Status": 1,
        "Id": 41246
    },
    {
        "Did": 522700,
        "Parent_Did": 520000,
        "Name": "黔南布依族苗族自治州",
        "Short_Name": "黔南",
        "Longitude": 107.517,
        "Latitude": 26.2582,
        "Level": 2,
        "Sort": 6,
        "Status": 1,
        "Id": 38187
    },
    {
        "Did": 542300,
        "Parent_Did": 540000,
        "Name": "日喀则地区",
        "Short_Name": "日喀则",
        "Longitude": 88.8851,
        "Latitude": 29.2675,
        "Level": 2,
        "Sort": 6,
        "Status": 1,
        "Id": 40251
    },
    {
        "Did": 411100,
        "Parent_Did": 410000,
        "Name": "漯河市",
        "Short_Name": "漯河",
        "Longitude": 114.026,
        "Latitude": 33.5759,
        "Level": 2,
        "Sort": 6,
        "Status": 1,
        "Id": 22336
    },
    {
        "Did": 330200,
        "Parent_Did": 330000,
        "Name": "宁波市",
        "Short_Name": "宁波",
        "Longitude": 121.55,
        "Latitude": 29.8684,
        "Level": 2,
        "Sort": 6,
        "Status": 1,
        "Id": 12870
    },
    {
        "Did": 450300,
        "Parent_Did": 450000,
        "Name": "桂林市",
        "Short_Name": "桂林",
        "Longitude": 110.299,
        "Latitude": 25.2742,
        "Level": 2,
        "Sort": 6,
        "Status": 1,
        "Id": 30027
    },
    {
        "Did": 370800,
        "Parent_Did": 370000,
        "Name": "济宁市",
        "Short_Name": "济宁",
        "Longitude": 116.587,
        "Latitude": 35.4154,
        "Level": 2,
        "Sort": 6,
        "Status": 1,
        "Id": 19790
    },
    {
        "Did": 131000,
        "Parent_Did": 130000,
        "Name": "廊坊市",
        "Short_Name": "廊坊",
        "Longitude": 116.704,
        "Latitude": 39.5239,
        "Level": 2,
        "Sort": 6,
        "Status": 1,
        "Id": 2897
    },
    {
        "Did": 710500,
        "Parent_Did": 710000,
        "Name": "金门县",
        "Short_Name": "金门",
        "Longitude": 121.509,
        "Latitude": 25.0443,
        "Level": 2,
        "Sort": 6,
        "Status": 1,
        "Id": 46166
    },
    {
        "Did": 230800,
        "Parent_Did": 230000,
        "Name": "佳木斯市",
        "Short_Name": "佳木斯",
        "Longitude": 130.362,
        "Latitude": 46.8096,
        "Level": 2,
        "Sort": 6,
        "Status": 1,
        "Id": 10071
    },
    {
        "Did": 513300,
        "Parent_Did": 510000,
        "Name": "甘孜藏族自治州",
        "Short_Name": "甘孜",
        "Longitude": 101.964,
        "Latitude": 30.0507,
        "Level": 2,
        "Sort": 6,
        "Status": 1,
        "Id": 36192
    },
    {
        "Did": 469025,
        "Parent_Did": 460000,
        "Name": "定安县",
        "Short_Name": "定安",
        "Longitude": 110.349,
        "Latitude": 19.685,
        "Level": 2,
        "Sort": 6,
        "Status": 1,
        "Id": 31359
    },
    {
        "Did": 150100,
        "Parent_Did": 150000,
        "Name": "呼和浩特市",
        "Short_Name": "呼和浩特",
        "Longitude": 111.671,
        "Latitude": 40.8183,
        "Level": 2,
        "Sort": 6,
        "Status": 1,
        "Id": 4738
    },
    {
        "Did": 350500,
        "Parent_Did": 350000,
        "Name": "泉州市",
        "Short_Name": "泉州",
        "Longitude": 118.589,
        "Latitude": 24.9089,
        "Level": 2,
        "Sort": 6,
        "Status": 1,
        "Id": 16284
    },
    {
        "Did": 431300,
        "Parent_Did": 430000,
        "Name": "娄底市",
        "Short_Name": "娄底",
        "Longitude": 112.008,
        "Latitude": 27.7281,
        "Level": 2,
        "Sort": 6,
        "Status": 1,
        "Id": 27551
    },
    {
        "Did": 341200,
        "Parent_Did": 340000,
        "Name": "阜阳市",
        "Short_Name": "阜阳",
        "Longitude": 115.82,
        "Latitude": 32.897,
        "Level": 2,
        "Sort": 6,
        "Status": 1,
        "Id": 15011
    },
    {
        "Did": 360100,
        "Parent_Did": 360000,
        "Name": "南昌市",
        "Short_Name": "南昌",
        "Longitude": 115.892,
        "Latitude": 28.6765,
        "Level": 2,
        "Sort": 6,
        "Status": 1,
        "Id": 17072
    },
    {
        "Did": 220300,
        "Parent_Did": 220000,
        "Name": "四平市",
        "Short_Name": "四平",
        "Longitude": 124.371,
        "Latitude": 43.1703,
        "Level": 2,
        "Sort": 6,
        "Status": 1,
        "Id": 8122
    },
    {
        "Did": 141100,
        "Parent_Did": 140000,
        "Name": "吕梁市",
        "Short_Name": "吕梁",
        "Longitude": 111.134,
        "Latitude": 37.5244,
        "Level": 2,
        "Sort": 6,
        "Status": 1,
        "Id": 4556
    },
    {
        "Did": 620900,
        "Parent_Did": 620000,
        "Name": "酒泉市",
        "Short_Name": "酒泉",
        "Longitude": 98.5108,
        "Latitude": 39.744,
        "Level": 2,
        "Sort": 6,
        "Status": 1,
        "Id": 42962
    },
    {
        "Did": 441600,
        "Parent_Did": 440000,
        "Name": "河源市",
        "Short_Name": "河源",
        "Longitude": 114.698,
        "Latitude": 23.7463,
        "Level": 2,
        "Sort": 6,
        "Status": 1,
        "Id": 29145
    },
    {
        "Did": 210000,
        "Parent_Did": 0,
        "Name": "辽宁省",
        "Short_Name": "辽宁",
        "Longitude": 123.429,
        "Latitude": 41.7968,
        "Level": 1,
        "Sort": 6,
        "Status": 1,
        "Id": 6108
    },
    {
        "Did": 652300,
        "Parent_Did": 650000,
        "Name": "昌吉回族自治州",
        "Short_Name": "昌吉",
        "Longitude": 87.304,
        "Latitude": 44.0146,
        "Level": 2,
        "Sort": 6,
        "Status": 1,
        "Id": 44771
    },
    {
        "Did": 632300,
        "Parent_Did": 630000,
        "Name": "黄南藏族自治州",
        "Short_Name": "黄南",
        "Longitude": 102.02,
        "Latitude": 35.5177,
        "Level": 2,
        "Sort": 6,
        "Status": 1,
        "Id": 44005
    },
    {
        "Did": 532500,
        "Parent_Did": 530000,
        "Name": "红河哈尼族彝族自治州",
        "Short_Name": "红河",
        "Longitude": 103.384,
        "Latitude": 23.3668,
        "Level": 2,
        "Sort": 6,
        "Status": 1,
        "Id": 39398
    },
    {
        "Did": 210400,
        "Parent_Did": 210000,
        "Name": "抚顺市",
        "Short_Name": "抚顺",
        "Longitude": 123.921,
        "Latitude": 41.876,
        "Level": 2,
        "Sort": 6,
        "Status": 1,
        "Id": 6633
    },
    {
        "Did": 321300,
        "Parent_Did": 320000,
        "Name": "宿迁市",
        "Short_Name": "宿迁",
        "Longitude": 118.275,
        "Latitude": 33.963,
        "Level": 2,
        "Sort": 6,
        "Status": 1,
        "Id": 12524
    },
    {
        "Did": 630100,
        "Parent_Did": 630000,
        "Name": "西宁市",
        "Short_Name": "西宁",
        "Longitude": 101.779,
        "Latitude": 36.6232,
        "Level": 2,
        "Sort": 7,
        "Status": 1,
        "Id": 43779
    },
    {
        "Did": 220700,
        "Parent_Did": 220000,
        "Name": "松原市",
        "Short_Name": "松原",
        "Longitude": 124.824,
        "Latitude": 45.1182,
        "Level": 2,
        "Sort": 7,
        "Status": 1,
        "Id": 8458
    },
    {
        "Did": 320500,
        "Parent_Did": 320000,
        "Name": "苏州市",
        "Short_Name": "苏州",
        "Longitude": 120.62,
        "Latitude": 31.2994,
        "Level": 2,
        "Sort": 7,
        "Status": 1,
        "Id": 11535
    },
    {
        "Did": 620100,
        "Parent_Did": 620000,
        "Name": "兰州市",
        "Short_Name": "兰州",
        "Longitude": 103.824,
        "Latitude": 36.058,
        "Level": 2,
        "Sort": 7,
        "Status": 1,
        "Id": 42259
    },
    {
        "Did": 530100,
        "Parent_Did": 530000,
        "Name": "昆明市",
        "Short_Name": "昆明",
        "Longitude": 102.712,
        "Latitude": 25.0406,
        "Level": 2,
        "Sort": 7,
        "Status": 1,
        "Id": 38420
    },
    {
        "Did": 340100,
        "Parent_Did": 340000,
        "Name": "合肥市",
        "Short_Name": "合肥",
        "Longitude": 117.283,
        "Latitude": 31.8612,
        "Level": 2,
        "Sort": 7,
        "Status": 1,
        "Id": 14110
    },
    {
        "Did": 430500,
        "Parent_Did": 430000,
        "Name": "邵阳市",
        "Short_Name": "邵阳",
        "Longitude": 111.469,
        "Latitude": 27.2378,
        "Level": 2,
        "Sort": 7,
        "Status": 1,
        "Id": 25891
    },
    {
        "Did": 410300,
        "Parent_Did": 410000,
        "Name": "洛阳市",
        "Short_Name": "洛阳",
        "Longitude": 112.434,
        "Latitude": 34.663,
        "Level": 2,
        "Sort": 7,
        "Status": 1,
        "Id": 21289
    },
    {
        "Did": 150700,
        "Parent_Did": 150000,
        "Name": "呼伦贝尔市",
        "Short_Name": "呼伦贝尔",
        "Longitude": 119.758,
        "Latitude": 49.2153,
        "Level": 2,
        "Sort": 7,
        "Status": 1,
        "Id": 5431
    },
    {
        "Did": 330800,
        "Parent_Did": 330000,
        "Name": "衢州市",
        "Short_Name": "衢州",
        "Longitude": 118.873,
        "Latitude": 28.9417,
        "Level": 2,
        "Sort": 7,
        "Status": 1,
        "Id": 13625
    },
    {
        "Did": 469007,
        "Parent_Did": 460000,
        "Name": "东方市",
        "Short_Name": "东方",
        "Longitude": 108.654,
        "Latitude": 19.102,
        "Level": 2,
        "Sort": 7,
        "Status": 1,
        "Id": 31297
    },
    {
        "Did": 429005,
        "Parent_Did": 420000,
        "Name": "潜江市",
        "Short_Name": "潜江",
        "Longitude": 112.897,
        "Latitude": 30.4212,
        "Level": 2,
        "Sort": 7,
        "Status": 1,
        "Id": 25168
    },
    {
        "Did": 451200,
        "Parent_Did": 450000,
        "Name": "河池市",
        "Short_Name": "河池",
        "Longitude": 108.062,
        "Latitude": 24.6959,
        "Level": 2,
        "Sort": 7,
        "Status": 1,
        "Id": 30811
    },
    {
        "Did": 712800,
        "Parent_Did": 710000,
        "Name": "连江县",
        "Short_Name": "连江",
        "Longitude": 121.509,
        "Latitude": 25.0443,
        "Level": 2,
        "Sort": 7,
        "Status": 1,
        "Id": 46433
    },
    {
        "Did": 220000,
        "Parent_Did": 0,
        "Name": "吉林省",
        "Short_Name": "吉林",
        "Longitude": 125.325,
        "Latitude": 43.8868,
        "Level": 1,
        "Sort": 7,
        "Status": 1,
        "Id": 7785
    },
    {
        "Did": 360300,
        "Parent_Did": 360000,
        "Name": "萍乡市",
        "Short_Name": "萍乡",
        "Longitude": 113.852,
        "Latitude": 27.6229,
        "Level": 2,
        "Sort": 7,
        "Status": 1,
        "Id": 17285
    },
    {
        "Did": 511600,
        "Parent_Did": 510000,
        "Name": "广安市",
        "Short_Name": "广安",
        "Longitude": 106.633,
        "Latitude": 30.4564,
        "Level": 2,
        "Sort": 7,
        "Status": 1,
        "Id": 34961
    },
    {
        "Did": 140600,
        "Parent_Did": 140000,
        "Name": "朔州市",
        "Short_Name": "朔州",
        "Longitude": 112.433,
        "Latitude": 39.3313,
        "Level": 2,
        "Sort": 7,
        "Status": 1,
        "Id": 3733
    },
    {
        "Did": 652200,
        "Parent_Did": 650000,
        "Name": "哈密地区",
        "Short_Name": "哈密",
        "Longitude": 93.5132,
        "Latitude": 42.8332,
        "Level": 2,
        "Sort": 7,
        "Status": 1,
        "Id": 44709
    },
    {
        "Did": 522300,
        "Parent_Did": 520000,
        "Name": "黔西南布依族苗族自治州",
        "Short_Name": "黔西南",
        "Longitude": 104.898,
        "Latitude": 25.0881,
        "Level": 2,
        "Sort": 7,
        "Status": 1,
        "Id": 37809
    },
    {
        "Did": 230300,
        "Parent_Did": 230000,
        "Name": "鸡西市",
        "Short_Name": "鸡西",
        "Longitude": 130.976,
        "Latitude": 45.3,
        "Level": 2,
        "Sort": 7,
        "Status": 1,
        "Id": 9400
    },
    {
        "Did": 441300,
        "Parent_Did": 440000,
        "Name": "惠州市",
        "Short_Name": "惠州",
        "Longitude": 114.413,
        "Latitude": 23.0794,
        "Level": 2,
        "Sort": 7,
        "Status": 1,
        "Id": 28861
    },
    {
        "Did": 210900,
        "Parent_Did": 210000,
        "Name": "阜新市",
        "Short_Name": "阜新",
        "Longitude": 121.649,
        "Latitude": 42.0118,
        "Level": 2,
        "Sort": 7,
        "Status": 1,
        "Id": 7103
    },
    {
        "Did": 130300,
        "Parent_Did": 130000,
        "Name": "秦皇岛市",
        "Short_Name": "秦皇岛",
        "Longitude": 119.587,
        "Latitude": 39.9425,
        "Level": 2,
        "Sort": 7,
        "Status": 1,
        "Id": 1220
    },
    {
        "Did": 371200,
        "Parent_Did": 370000,
        "Name": "莱芜市",
        "Short_Name": "莱芜",
        "Longitude": 117.678,
        "Latitude": 36.2144,
        "Level": 2,
        "Sort": 7,
        "Status": 1,
        "Id": 20177
    },
    {
        "Did": 542200,
        "Parent_Did": 540000,
        "Name": "山南地区",
        "Short_Name": "山南",
        "Longitude": 91.7665,
        "Latitude": 29.236,
        "Level": 2,
        "Sort": 7,
        "Status": 1,
        "Id": 40156
    },
    {
        "Did": 350400,
        "Parent_Did": 350000,
        "Name": "三明市",
        "Short_Name": "三明",
        "Longitude": 117.635,
        "Latitude": 26.2654,
        "Level": 2,
        "Sort": 7,
        "Status": 1,
        "Id": 16122
    },
    {
        "Did": 610100,
        "Parent_Did": 610000,
        "Name": "西安市",
        "Short_Name": "西安",
        "Longitude": 108.948,
        "Latitude": 34.2632,
        "Level": 2,
        "Sort": 7,
        "Status": 1,
        "Id": 40700
    },
    {
        "Did": 622900,
        "Parent_Did": 620000,
        "Name": "临夏回族自治州",
        "Short_Name": "临夏",
        "Longitude": 103.212,
        "Latitude": 35.5994,
        "Level": 2,
        "Sort": 8,
        "Status": 1,
        "Id": 43526
    },
    {
        "Did": 330600,
        "Parent_Did": 330000,
        "Name": "绍兴市",
        "Short_Name": "绍兴",
        "Longitude": 120.582,
        "Latitude": 29.9971,
        "Level": 2,
        "Sort": 8,
        "Status": 1,
        "Id": 13338
    },
    {
        "Did": 361100,
        "Parent_Did": 360000,
        "Name": "上饶市",
        "Short_Name": "上饶",
        "Longitude": 117.971,
        "Latitude": 28.4444,
        "Level": 2,
        "Sort": 8,
        "Status": 1,
        "Id": 18720
    },
    {
        "Did": 451100,
        "Parent_Did": 450000,
        "Name": "贺州市",
        "Short_Name": "贺州",
        "Longitude": 111.552,
        "Latitude": 24.4141,
        "Level": 2,
        "Sort": 8,
        "Status": 1,
        "Id": 30753
    },
    {
        "Did": 231000,
        "Parent_Did": 230000,
        "Name": "牡丹江市",
        "Short_Name": "牡丹江",
        "Longitude": 129.619,
        "Latitude": 44.583,
        "Level": 2,
        "Sort": 8,
        "Status": 1,
        "Id": 10275
    },
    {
        "Did": 371500,
        "Parent_Did": 370000,
        "Name": "聊城市",
        "Short_Name": "聊城",
        "Longitude": 115.98,
        "Latitude": 36.456,
        "Level": 2,
        "Sort": 8,
        "Status": 1,
        "Id": 20516
    },
    {
        "Did": 150500,
        "Parent_Did": 150000,
        "Name": "通辽市",
        "Short_Name": "通辽",
        "Longitude": 122.263,
        "Latitude": 43.6174,
        "Level": 2,
        "Sort": 8,
        "Status": 1,
        "Id": 5172
    },
    {
        "Did": 140100,
        "Parent_Did": 140000,
        "Name": "太原市",
        "Short_Name": "太原",
        "Longitude": 112.549,
        "Latitude": 37.857,
        "Level": 2,
        "Sort": 8,
        "Status": 1,
        "Id": 3156
    },
    {
        "Did": 220500,
        "Parent_Did": 220000,
        "Name": "通化市",
        "Short_Name": "通化",
        "Longitude": 125.937,
        "Latitude": 41.7212,
        "Level": 2,
        "Sort": 8,
        "Status": 1,
        "Id": 8284
    },
    {
        "Did": 530700,
        "Parent_Did": 530000,
        "Name": "丽江市",
        "Short_Name": "丽江",
        "Longitude": 100.233,
        "Latitude": 26.8721,
        "Level": 2,
        "Sort": 8,
        "Status": 1,
        "Id": 39008
    },
    {
        "Did": 632700,
        "Parent_Did": 630000,
        "Name": "玉树藏族自治州",
        "Short_Name": "玉树",
        "Longitude": 97.0085,
        "Latitude": 33.004,
        "Level": 2,
        "Sort": 8,
        "Status": 1,
        "Id": 44142
    },
    {
        "Did": 321200,
        "Parent_Did": 320000,
        "Name": "泰州市",
        "Short_Name": "泰州",
        "Longitude": 119.915,
        "Latitude": 32.4849,
        "Level": 2,
        "Sort": 8,
        "Status": 1,
        "Id": 12401
    },
    {
        "Did": 610400,
        "Parent_Did": 610000,
        "Name": "咸阳市",
        "Short_Name": "咸阳",
        "Longitude": 108.705,
        "Latitude": 34.3334,
        "Level": 2,
        "Sort": 8,
        "Status": 1,
        "Id": 41075
    },
    {
        "Did": 350200,
        "Parent_Did": 350000,
        "Name": "厦门市",
        "Short_Name": "厦门",
        "Longitude": 118.11,
        "Latitude": 24.4905,
        "Level": 2,
        "Sort": 8,
        "Status": 1,
        "Id": 16001
    },
    {
        "Did": 429021,
        "Parent_Did": 420000,
        "Name": "神农架林区",
        "Short_Name": "神农架",
        "Longitude": 114.299,
        "Latitude": 30.5844,
        "Level": 2,
        "Sort": 8,
        "Status": 1,
        "Id": 25223
    },
    {
        "Did": 340600,
        "Parent_Did": 340000,
        "Name": "淮北市",
        "Short_Name": "淮北",
        "Longitude": 116.795,
        "Latitude": 33.9717,
        "Level": 2,
        "Sort": 8,
        "Status": 1,
        "Id": 14496
    },
    {
        "Did": 460100,
        "Parent_Did": 460000,
        "Name": "海口市",
        "Short_Name": "海口",
        "Longitude": 110.331,
        "Latitude": 20.032,
        "Level": 2,
        "Sort": 8,
        "Status": 1,
        "Id": 31136
    },
    {
        "Did": 130100,
        "Parent_Did": 130000,
        "Name": "石家庄市",
        "Short_Name": "石家庄",
        "Longitude": 114.502,
        "Latitude": 38.0455,
        "Level": 2,
        "Sort": 8,
        "Status": 1,
        "Id": 675
    },
    {
        "Did": 522200,
        "Parent_Did": 520000,
        "Name": "铜仁市",
        "Short_Name": "铜仁",
        "Longitude": 109.192,
        "Latitude": 27.7183,
        "Level": 2,
        "Sort": 8,
        "Status": 1,
        "Id": 37798
    },
    {
        "Did": 230000,
        "Parent_Did": 0,
        "Name": "黑龙江省",
        "Short_Name": "黑龙江",
        "Longitude": 126.642,
        "Latitude": 45.757,
        "Level": 1,
        "Sort": 8,
        "Status": 1,
        "Id": 8872
    },
    {
        "Did": 510800,
        "Parent_Did": 510000,
        "Name": "广元市",
        "Short_Name": "广元",
        "Longitude": 105.83,
        "Latitude": 32.4337,
        "Level": 2,
        "Sort": 8,
        "Status": 1,
        "Id": 33453
    },
    {
        "Did": 653200,
        "Parent_Did": 650000,
        "Name": "和田地区",
        "Short_Name": "和田",
        "Longitude": 79.9253,
        "Latitude": 37.1107,
        "Level": 2,
        "Sort": 8,
        "Status": 1,
        "Id": 45493
    },
    {
        "Did": 711500,
        "Parent_Did": 710000,
        "Name": "苗栗县",
        "Short_Name": "苗栗",
        "Longitude": 121.509,
        "Latitude": 25.0443,
        "Level": 2,
        "Sort": 8,
        "Status": 1,
        "Id": 46274
    },
    {
        "Did": 411300,
        "Parent_Did": 410000,
        "Name": "南阳市",
        "Short_Name": "南阳",
        "Longitude": 112.541,
        "Latitude": 32.9991,
        "Level": 2,
        "Sort": 8,
        "Status": 1,
        "Id": 22484
    },
    {
        "Did": 440700,
        "Parent_Did": 440000,
        "Name": "江门市",
        "Short_Name": "江门",
        "Longitude": 113.095,
        "Latitude": 22.5904,
        "Level": 2,
        "Sort": 8,
        "Status": 1,
        "Id": 28373
    },
    {
        "Did": 430300,
        "Parent_Did": 430000,
        "Name": "湘潭市",
        "Short_Name": "湘潭",
        "Longitude": 112.944,
        "Latitude": 27.8297,
        "Level": 2,
        "Sort": 8,
        "Status": 1,
        "Id": 25562
    },
    {
        "Did": 211400,
        "Parent_Did": 210000,
        "Name": "葫芦岛市",
        "Short_Name": "葫芦岛",
        "Longitude": 120.856,
        "Latitude": 40.7556,
        "Level": 2,
        "Sort": 8,
        "Status": 1,
        "Id": 7646
    },
    {
        "Did": 433100,
        "Parent_Did": 430000,
        "Name": "湘西土家族苗族自治州",
        "Short_Name": "湘西",
        "Longitude": 109.74,
        "Latitude": 28.3143,
        "Level": 2,
        "Sort": 9,
        "Status": 1,
        "Id": 27653
    },
    {
        "Did": 530900,
        "Parent_Did": 530000,
        "Name": "临沧市",
        "Short_Name": "临沧",
        "Longitude": 100.087,
        "Latitude": 23.8866,
        "Level": 2,
        "Sort": 9,
        "Status": 1,
        "Id": 39191
    },
    {
        "Did": 222400,
        "Parent_Did": 220000,
        "Name": "延边朝鲜族自治州",
        "Short_Name": "延边朝鲜族",
        "Longitude": 129.513,
        "Latitude": 42.9048,
        "Level": 2,
        "Sort": 9,
        "Status": 1,
        "Id": 8738
    },
    {
        "Did": 340400,
        "Parent_Did": 340000,
        "Name": "淮南市",
        "Short_Name": "淮南",
        "Longitude": 117.018,
        "Latitude": 32.6476,
        "Level": 2,
        "Sort": 9,
        "Status": 1,
        "Id": 14383
    },
    {
        "Did": 310000,
        "Parent_Did": 0,
        "Name": "上海市",
        "Short_Name": "上海",
        "Longitude": 121.473,
        "Latitude": 31.2317,
        "Level": 1,
        "Sort": 9,
        "Status": 1,
        "Id": 10806
    },
    {
        "Did": 621200,
        "Parent_Did": 620000,
        "Name": "陇南市",
        "Short_Name": "陇南",
        "Longitude": 104.929,
        "Latitude": 33.3886,
        "Level": 2,
        "Sort": 9,
        "Status": 1,
        "Id": 43321
    },
    {
        "Did": 140900,
        "Parent_Did": 140000,
        "Name": "忻州市",
        "Short_Name": "忻州",
        "Longitude": 112.734,
        "Latitude": 38.4177,
        "Level": 2,
        "Sort": 9,
        "Status": 1,
        "Id": 4154
    },
    {
        "Did": 520300,
        "Parent_Did": 520000,
        "Name": "遵义市",
        "Short_Name": "遵义",
        "Longitude": 106.937,
        "Latitude": 27.7066,
        "Level": 2,
        "Sort": 9,
        "Status": 1,
        "Id": 37443
    },
    {
        "Did": 150300,
        "Parent_Did": 150000,
        "Name": "乌海市",
        "Short_Name": "乌海",
        "Longitude": 106.826,
        "Latitude": 39.6737,
        "Level": 2,
        "Sort": 9,
        "Status": 1,
        "Id": 4938
    },
    {
        "Did": 350600,
        "Parent_Did": 350000,
        "Name": "漳州市",
        "Short_Name": "漳州",
        "Longitude": 117.662,
        "Latitude": 24.5109,
        "Level": 2,
        "Sort": 9,
        "Status": 1,
        "Id": 16467
    },
    {
        "Did": 710600,
        "Parent_Did": 710000,
        "Name": "南投县",
        "Short_Name": "南投",
        "Longitude": 121.509,
        "Latitude": 25.0443,
        "Level": 2,
        "Sort": 9,
        "Status": 1,
        "Id": 46173
    },
    {
        "Did": 420300,
        "Parent_Did": 420000,
        "Name": "十堰市",
        "Short_Name": "十堰",
        "Longitude": 110.788,
        "Latitude": 32.6469,
        "Level": 2,
        "Sort": 9,
        "Status": 1,
        "Id": 23906
    },
    {
        "Did": 445200,
        "Parent_Did": 440000,
        "Name": "揭阳市",
        "Short_Name": "揭阳",
        "Longitude": 116.356,
        "Latitude": 23.5438,
        "Level": 2,
        "Sort": 9,
        "Status": 1,
        "Id": 29549
    },
    {
        "Did": 360500,
        "Parent_Did": 360000,
        "Name": "新余市",
        "Short_Name": "新余",
        "Longitude": 114.931,
        "Latitude": 27.8108,
        "Level": 2,
        "Sort": 9,
        "Status": 1,
        "Id": 17586
    },
    {
        "Did": 511100,
        "Parent_Did": 510000,
        "Name": "乐山市",
        "Short_Name": "乐山",
        "Longitude": 103.761,
        "Latitude": 29.582,
        "Level": 2,
        "Sort": 9,
        "Status": 1,
        "Id": 33972
    },
    {
        "Did": 610600,
        "Parent_Did": 610000,
        "Name": "延安市",
        "Short_Name": "延安",
        "Longitude": 109.491,
        "Latitude": 36.5965,
        "Level": 2,
        "Sort": 9,
        "Status": 1,
        "Id": 41404
    },
    {
        "Did": 320200,
        "Parent_Did": 320000,
        "Name": "无锡市",
        "Short_Name": "无锡",
        "Longitude": 120.302,
        "Latitude": 31.5747,
        "Level": 2,
        "Sort": 9,
        "Status": 1,
        "Id": 11205
    },
    {
        "Did": 653100,
        "Parent_Did": 650000,
        "Name": "喀什地区",
        "Short_Name": "喀什",
        "Longitude": 75.9891,
        "Latitude": 39.4677,
        "Level": 2,
        "Sort": 9,
        "Status": 1,
        "Id": 45260
    },
    {
        "Did": 230200,
        "Parent_Did": 230000,
        "Name": "齐齐哈尔市",
        "Short_Name": "齐齐哈尔",
        "Longitude": 123.958,
        "Latitude": 47.3421,
        "Level": 2,
        "Sort": 9,
        "Status": 1,
        "Id": 9165
    },
    {
        "Did": 331000,
        "Parent_Did": 330000,
        "Name": "台州市",
        "Short_Name": "台州",
        "Longitude": 121.429,
        "Latitude": 28.6614,
        "Level": 2,
        "Sort": 9,
        "Status": 1,
        "Id": 13776
    },
    {
        "Did": 130200,
        "Parent_Did": 130000,
        "Name": "唐山市",
        "Short_Name": "唐山",
        "Longitude": 118.175,
        "Latitude": 39.6351,
        "Level": 2,
        "Sort": 9,
        "Status": 1,
        "Id": 979
    },
    {
        "Did": 469033,
        "Parent_Did": 460000,
        "Name": "乐东黎族自治县",
        "Short_Name": "乐东",
        "Longitude": 109.175,
        "Latitude": 18.7476,
        "Level": 2,
        "Sort": 9,
        "Status": 1,
        "Id": 31448
    },
    {
        "Did": 410400,
        "Parent_Did": 410000,
        "Name": "平顶山市",
        "Short_Name": "平顶山",
        "Longitude": 113.308,
        "Latitude": 33.7352,
        "Level": 2,
        "Sort": 9,
        "Status": 1,
        "Id": 21477
    },
    {
        "Did": 371300,
        "Parent_Did": 370000,
        "Name": "临沂市",
        "Short_Name": "临沂",
        "Longitude": 118.326,
        "Latitude": 35.0653,
        "Level": 2,
        "Sort": 9,
        "Status": 1,
        "Id": 20200
    },
    {
        "Did": 210700,
        "Parent_Did": 210000,
        "Name": "锦州市",
        "Short_Name": "锦州",
        "Longitude": 121.136,
        "Latitude": 41.1193,
        "Level": 2,
        "Sort": 9,
        "Status": 1,
        "Id": 6892
    },
    {
        "Did": 451300,
        "Parent_Did": 450000,
        "Name": "来宾市",
        "Short_Name": "来宾",
        "Longitude": 109.23,
        "Latitude": 23.7338,
        "Level": 2,
        "Sort": 9,
        "Status": 1,
        "Id": 30962
    },
    {
        "Did": 610800,
        "Parent_Did": 610000,
        "Name": "榆林市",
        "Short_Name": "榆林",
        "Longitude": 109.741,
        "Latitude": 38.2902,
        "Level": 2,
        "Sort": 10,
        "Status": 1,
        "Id": 41744
    },
    {
        "Did": 320300,
        "Parent_Did": 320000,
        "Name": "徐州市",
        "Short_Name": "徐州",
        "Longitude": 117.185,
        "Latitude": 34.2618,
        "Level": 2,
        "Sort": 10,
        "Status": 1,
        "Id": 11302
    },
    {
        "Did": 211000,
        "Parent_Did": 210000,
        "Name": "辽阳市",
        "Short_Name": "辽阳",
        "Longitude": 123.182,
        "Latitude": 41.2694,
        "Level": 2,
        "Sort": 10,
        "Status": 1,
        "Id": 7208
    },
    {
        "Did": 320000,
        "Parent_Did": 0,
        "Name": "江苏省",
        "Short_Name": "江苏",
        "Longitude": 118.767,
        "Latitude": 32.0415,
        "Level": 1,
        "Sort": 10,
        "Status": 1,
        "Id": 11055
    },
    {
        "Did": 430900,
        "Parent_Did": 430000,
        "Name": "益阳市",
        "Short_Name": "益阳",
        "Longitude": 112.355,
        "Latitude": 28.5701,
        "Level": 2,
        "Sort": 10,
        "Status": 1,
        "Id": 26675
    },
    {
        "Did": 130500,
        "Parent_Did": 130000,
        "Name": "邢台市",
        "Short_Name": "邢台",
        "Longitude": 114.509,
        "Latitude": 37.0682,
        "Level": 2,
        "Sort": 10,
        "Status": 1,
        "Id": 1595
    },
    {
        "Did": 620800,
        "Parent_Did": 620000,
        "Name": "平凉市",
        "Short_Name": "平凉",
        "Longitude": 106.685,
        "Latitude": 35.5428,
        "Level": 2,
        "Sort": 10,
        "Status": 1,
        "Id": 42834
    },
    {
        "Did": 712700,
        "Parent_Did": 710000,
        "Name": "澎湖县",
        "Short_Name": "澎湖",
        "Longitude": 121.509,
        "Latitude": 25.0443,
        "Level": 2,
        "Sort": 10,
        "Status": 1,
        "Id": 46426
    },
    {
        "Did": 150900,
        "Parent_Did": 150000,
        "Name": "乌兰察布市",
        "Short_Name": "乌兰察布",
        "Longitude": 113.115,
        "Latitude": 41.0341,
        "Level": 2,
        "Sort": 10,
        "Status": 1,
        "Id": 5729
    },
    {
        "Did": 650200,
        "Parent_Did": 650000,
        "Name": "克拉玛依市",
        "Short_Name": "克拉玛依",
        "Longitude": 84.8739,
        "Latitude": 45.5959,
        "Level": 2,
        "Sort": 10,
        "Status": 1,
        "Id": 44647
    },
    {
        "Did": 140300,
        "Parent_Did": 140000,
        "Name": "阳泉市",
        "Short_Name": "阳泉",
        "Longitude": 113.583,
        "Latitude": 37.8612,
        "Level": 2,
        "Sort": 10,
        "Status": 1,
        "Id": 3438
    },
    {
        "Did": 410900,
        "Parent_Did": 410000,
        "Name": "濮阳市",
        "Short_Name": "濮阳",
        "Longitude": 115.041,
        "Latitude": 35.7682,
        "Level": 2,
        "Sort": 10,
        "Status": 1,
        "Id": 22133
    },
    {
        "Did": 360900,
        "Parent_Did": 360000,
        "Name": "宜春市",
        "Short_Name": "宜春",
        "Longitude": 114.391,
        "Latitude": 27.8043,
        "Level": 2,
        "Sort": 10,
        "Status": 1,
        "Id": 18294
    },
    {
        "Did": 421300,
        "Parent_Did": 420000,
        "Name": "随州市",
        "Short_Name": "随州",
        "Longitude": 113.374,
        "Latitude": 31.7175,
        "Level": 2,
        "Sort": 10,
        "Status": 1,
        "Id": 25000
    },
    {
        "Did": 370200,
        "Parent_Did": 370000,
        "Name": "青岛市",
        "Short_Name": "青岛",
        "Longitude": 120.355,
        "Latitude": 36.083,
        "Level": 2,
        "Sort": 10,
        "Status": 1,
        "Id": 19114
    },
    {
        "Did": 469028,
        "Parent_Did": 460000,
        "Name": "临高县",
        "Short_Name": "临高",
        "Longitude": 109.688,
        "Latitude": 19.9083,
        "Level": 2,
        "Sort": 10,
        "Status": 1,
        "Id": 31403
    },
    {
        "Did": 341000,
        "Parent_Did": 340000,
        "Name": "黄山市",
        "Short_Name": "黄山",
        "Longitude": 118.317,
        "Latitude": 29.7092,
        "Level": 2,
        "Sort": 10,
        "Status": 1,
        "Id": 14765
    },
    {
        "Did": 513400,
        "Parent_Did": 510000,
        "Name": "凉山彝族自治州",
        "Short_Name": "凉山",
        "Longitude": 102.259,
        "Latitude": 27.8868,
        "Level": 2,
        "Sort": 10,
        "Status": 1,
        "Id": 36536
    },
    {
        "Did": 533300,
        "Parent_Did": 530000,
        "Name": "怒江傈僳族自治州",
        "Short_Name": "怒江",
        "Longitude": 98.8543,
        "Latitude": 25.8509,
        "Level": 2,
        "Sort": 10,
        "Status": 1,
        "Id": 39864
    },
    {
        "Did": 440900,
        "Parent_Did": 440000,
        "Name": "茂名市",
        "Short_Name": "茂名",
        "Longitude": 110.919,
        "Latitude": 21.6598,
        "Level": 2,
        "Sort": 10,
        "Status": 1,
        "Id": 28613
    },
    {
        "Did": 450200,
        "Parent_Did": 450000,
        "Name": "柳州市",
        "Short_Name": "柳州",
        "Longitude": 109.412,
        "Latitude": 24.3146,
        "Level": 2,
        "Sort": 10,
        "Status": 1,
        "Id": 29898
    },
    {
        "Did": 230900,
        "Parent_Did": 230000,
        "Name": "七台河市",
        "Short_Name": "七台河",
        "Longitude": 131.016,
        "Latitude": 45.7713,
        "Level": 2,
        "Sort": 10,
        "Status": 1,
        "Id": 10213
    },
    {
        "Did": 330300,
        "Parent_Did": 330000,
        "Name": "温州市",
        "Short_Name": "温州",
        "Longitude": 120.672,
        "Latitude": 28.0006,
        "Level": 2,
        "Sort": 10,
        "Status": 1,
        "Id": 13038
    },
    {
        "Did": 441400,
        "Parent_Did": 440000,
        "Name": "梅州市",
        "Short_Name": "梅州",
        "Longitude": 116.118,
        "Latitude": 24.2991,
        "Level": 2,
        "Sort": 11,
        "Status": 1,
        "Id": 28949
    },
    {
        "Did": 712400,
        "Parent_Did": 710000,
        "Name": "屏东县",
        "Short_Name": "屏东",
        "Longitude": 121.509,
        "Latitude": 25.0443,
        "Level": 2,
        "Sort": 11,
        "Status": 1,
        "Id": 46360
    },
    {
        "Did": 320900,
        "Parent_Did": 320000,
        "Name": "盐城市",
        "Short_Name": "盐城",
        "Longitude": 120.14,
        "Latitude": 33.3776,
        "Level": 2,
        "Sort": 11,
        "Status": 1,
        "Id": 12070
    },
    {
        "Did": 450100,
        "Parent_Did": 450000,
        "Name": "南宁市",
        "Short_Name": "南宁",
        "Longitude": 108.32,
        "Latitude": 22.824,
        "Level": 2,
        "Sort": 11,
        "Status": 1,
        "Id": 29743
    },
    {
        "Did": 621000,
        "Parent_Did": 620000,
        "Name": "庆阳市",
        "Short_Name": "庆阳",
        "Longitude": 107.638,
        "Latitude": 35.7342,
        "Level": 2,
        "Sort": 11,
        "Status": 1,
        "Id": 43063
    },
    {
        "Did": 152500,
        "Parent_Did": 150000,
        "Name": "锡林郭勒盟",
        "Short_Name": "锡林郭勒",
        "Longitude": 116.091,
        "Latitude": 43.944,
        "Level": 2,
        "Sort": 11,
        "Status": 1,
        "Id": 5952
    },
    {
        "Did": 510500,
        "Parent_Did": 510000,
        "Name": "泸州市",
        "Short_Name": "泸州",
        "Longitude": 105.443,
        "Latitude": 28.8891,
        "Level": 2,
        "Sort": 11,
        "Status": 1,
        "Id": 32855
    },
    {
        "Did": 429006,
        "Parent_Did": 420000,
        "Name": "天门市",
        "Short_Name": "天门",
        "Longitude": 113.166,
        "Latitude": 30.6531,
        "Level": 2,
        "Sort": 11,
        "Status": 1,
        "Id": 25194
    },
    {
        "Did": 211100,
        "Parent_Did": 210000,
        "Name": "盘锦市",
        "Short_Name": "盘锦",
        "Longitude": 122.07,
        "Latitude": 41.1245,
        "Level": 2,
        "Sort": 11,
        "Status": 1,
        "Id": 7277
    },
    {
        "Did": 330000,
        "Parent_Did": 0,
        "Name": "浙江省",
        "Short_Name": "浙江",
        "Longitude": 120.154,
        "Latitude": 30.2875,
        "Level": 1,
        "Sort": 11,
        "Status": 1,
        "Id": 12660
    },
    {
        "Did": 431100,
        "Parent_Did": 430000,
        "Name": "永州市",
        "Short_Name": "永州",
        "Longitude": 111.608,
        "Latitude": 26.4345,
        "Level": 2,
        "Sort": 11,
        "Status": 1,
        "Id": 27001
    },
    {
        "Did": 230500,
        "Parent_Did": 230000,
        "Name": "双鸭山市",
        "Short_Name": "双鸭山",
        "Longitude": 131.157,
        "Latitude": 46.6434,
        "Level": 2,
        "Sort": 11,
        "Status": 1,
        "Id": 9596
    },
    {
        "Did": 411200,
        "Parent_Did": 410000,
        "Name": "三门峡市",
        "Short_Name": "三门峡",
        "Longitude": 111.194,
        "Latitude": 34.7773,
        "Level": 2,
        "Sort": 11,
        "Status": 1,
        "Id": 22397
    },
    {
        "Did": 130700,
        "Parent_Did": 130000,
        "Name": "张家口市",
        "Short_Name": "张家口",
        "Longitude": 114.884,
        "Latitude": 40.8119,
        "Level": 2,
        "Sort": 11,
        "Status": 1,
        "Id": 2182
    },
    {
        "Did": 140800,
        "Parent_Did": 140000,
        "Name": "运城市",
        "Short_Name": "运城",
        "Longitude": 111.004,
        "Latitude": 35.0228,
        "Level": 2,
        "Sort": 11,
        "Status": 1,
        "Id": 3979
    },
    {
        "Did": 371100,
        "Parent_Did": 370000,
        "Name": "日照市",
        "Short_Name": "日照",
        "Longitude": 119.461,
        "Latitude": 35.4286,
        "Level": 2,
        "Sort": 11,
        "Status": 1,
        "Id": 20116
    },
    {
        "Did": 653000,
        "Parent_Did": 650000,
        "Name": "克孜勒苏柯尔克孜自治州",
        "Short_Name": "克孜勒苏柯尔克孜",
        "Longitude": 76.1728,
        "Latitude": 39.7134,
        "Level": 2,
        "Sort": 11,
        "Status": 1,
        "Id": 45209
    },
    {
        "Did": 530800,
        "Parent_Did": 530000,
        "Name": "普洱市",
        "Short_Name": "普洱",
        "Longitude": 100.972,
        "Latitude": 22.7773,
        "Level": 2,
        "Sort": 11,
        "Status": 1,
        "Id": 39077
    },
    {
        "Did": 330900,
        "Parent_Did": 330000,
        "Name": "舟山市",
        "Short_Name": "舟山",
        "Longitude": 122.107,
        "Latitude": 30.016,
        "Level": 2,
        "Sort": 11,
        "Status": 1,
        "Id": 13736
    },
    {
        "Did": 469034,
        "Parent_Did": 460000,
        "Name": "陵水黎族自治县",
        "Short_Name": "陵水",
        "Longitude": 110.037,
        "Latitude": 18.505,
        "Level": 2,
        "Sort": 11,
        "Status": 1,
        "Id": 31449
    },
    {
        "Did": 360600,
        "Parent_Did": 360000,
        "Name": "鹰潭市",
        "Short_Name": "鹰潭",
        "Longitude": 117.034,
        "Latitude": 28.2386,
        "Level": 2,
        "Sort": 11,
        "Status": 1,
        "Id": 17628
    },
    {
        "Did": 341500,
        "Parent_Did": 340000,
        "Name": "六安市",
        "Short_Name": "六安",
        "Longitude": 116.508,
        "Latitude": 31.7529,
        "Level": 2,
        "Sort": 11,
        "Status": 1,
        "Id": 15326
    },
    {
        "Did": 620500,
        "Parent_Did": 620000,
        "Name": "天水市",
        "Short_Name": "天水",
        "Longitude": 105.725,
        "Latitude": 34.5785,
        "Level": 2,
        "Sort": 12,
        "Status": 1,
        "Id": 42499
    },
    {
        "Did": 430600,
        "Parent_Did": 430000,
        "Name": "岳阳市",
        "Short_Name": "岳阳",
        "Longitude": 113.133,
        "Latitude": 29.3703,
        "Level": 2,
        "Sort": 12,
        "Status": 1,
        "Id": 26129
    },
    {
        "Did": 340000,
        "Parent_Did": 0,
        "Name": "安徽省",
        "Short_Name": "安徽",
        "Longitude": 117.283,
        "Latitude": 31.8612,
        "Level": 1,
        "Sort": 12,
        "Status": 1,
        "Id": 14109
    },
    {
        "Did": 231200,
        "Parent_Did": 230000,
        "Name": "绥化市",
        "Short_Name": "绥化",
        "Longitude": 126.993,
        "Latitude": 46.6374,
        "Level": 2,
        "Sort": 12,
        "Status": 1,
        "Id": 10546
    },
    {
        "Did": 511400,
        "Parent_Did": 510000,
        "Name": "眉山市",
        "Short_Name": "眉山",
        "Longitude": 103.832,
        "Latitude": 30.0483,
        "Level": 2,
        "Sort": 12,
        "Status": 1,
        "Id": 34642
    },
    {
        "Did": 420100,
        "Parent_Did": 420000,
        "Name": "武汉市",
        "Short_Name": "武汉",
        "Longitude": 114.299,
        "Latitude": 30.5844,
        "Level": 2,
        "Sort": 12,
        "Status": 1,
        "Id": 23635
    },
    {
        "Did": 340500,
        "Parent_Did": 340000,
        "Name": "马鞍山市",
        "Short_Name": "马鞍山",
        "Longitude": 118.508,
        "Latitude": 31.6894,
        "Level": 2,
        "Sort": 12,
        "Status": 1,
        "Id": 14457
    },
    {
        "Did": 450700,
        "Parent_Did": 450000,
        "Name": "钦州市",
        "Short_Name": "钦州",
        "Longitude": 108.624,
        "Latitude": 21.9671,
        "Level": 2,
        "Sort": 12,
        "Status": 1,
        "Id": 30335
    },
    {
        "Did": 441800,
        "Parent_Did": 440000,
        "Name": "清远市",
        "Short_Name": "清远",
        "Longitude": 113.051,
        "Latitude": 23.685,
        "Level": 2,
        "Sort": 12,
        "Status": 1,
        "Id": 29327
    },
    {
        "Did": 530300,
        "Parent_Did": 530000,
        "Name": "曲靖市",
        "Short_Name": "曲靖",
        "Longitude": 103.798,
        "Latitude": 25.5016,
        "Level": 2,
        "Sort": 12,
        "Status": 1,
        "Id": 38560
    },
    {
        "Did": 659001,
        "Parent_Did": 650000,
        "Name": "石河子市",
        "Short_Name": "石河子",
        "Longitude": 86.0411,
        "Latitude": 44.3059,
        "Level": 2,
        "Sort": 12,
        "Status": 1,
        "Id": 45997
    },
    {
        "Did": 321000,
        "Parent_Did": 320000,
        "Name": "扬州市",
        "Short_Name": "扬州",
        "Longitude": 119.421,
        "Latitude": 32.3932,
        "Level": 2,
        "Sort": 12,
        "Status": 1,
        "Id": 12235
    },
    {
        "Did": 210100,
        "Parent_Did": 210000,
        "Name": "沈阳市",
        "Short_Name": "沈阳",
        "Longitude": 123.429,
        "Latitude": 41.7968,
        "Level": 2,
        "Sort": 12,
        "Status": 1,
        "Id": 6109
    },
    {
        "Did": 411400,
        "Parent_Did": 410000,
        "Name": "商丘市",
        "Short_Name": "商丘",
        "Longitude": 115.65,
        "Latitude": 34.4371,
        "Level": 2,
        "Sort": 12,
        "Status": 1,
        "Id": 22749
    },
    {
        "Did": 710100,
        "Parent_Did": 710000,
        "Name": "台北市",
        "Short_Name": "台北",
        "Longitude": 121.509,
        "Latitude": 25.0443,
        "Level": 2,
        "Sort": 12,
        "Status": 1,
        "Id": 46045
    },
    {
        "Did": 152200,
        "Parent_Did": 150000,
        "Name": "兴安盟",
        "Short_Name": "兴安",
        "Longitude": 122.07,
        "Latitude": 46.0763,
        "Level": 2,
        "Sort": 12,
        "Status": 1,
        "Id": 5855
    },
    {
        "Did": 469002,
        "Parent_Did": 460000,
        "Name": "琼海市",
        "Short_Name": "琼海",
        "Longitude": 110.467,
        "Latitude": 19.246,
        "Level": 2,
        "Sort": 12,
        "Status": 1,
        "Id": 31217
    },
    {
        "Did": 370900,
        "Parent_Did": 370000,
        "Name": "泰安市",
        "Short_Name": "泰安",
        "Longitude": 117.129,
        "Latitude": 36.195,
        "Level": 2,
        "Sort": 12,
        "Status": 1,
        "Id": 19962
    },
    {
        "Did": 321100,
        "Parent_Did": 320000,
        "Name": "镇江市",
        "Short_Name": "镇江",
        "Longitude": 119.453,
        "Latitude": 32.2044,
        "Level": 2,
        "Sort": 13,
        "Status": 1,
        "Id": 12329
    },
    {
        "Did": 712500,
        "Parent_Did": 710000,
        "Name": "台东县",
        "Short_Name": "台东",
        "Longitude": 121.509,
        "Latitude": 25.0443,
        "Level": 2,
        "Sort": 13,
        "Status": 1,
        "Id": 46394
    },
    {
        "Did": 440500,
        "Parent_Did": 440000,
        "Name": "汕头市",
        "Short_Name": "汕头",
        "Longitude": 116.708,
        "Latitude": 23.371,
        "Level": 2,
        "Sort": 13,
        "Status": 1,
        "Id": 28249
    },
    {
        "Did": 341300,
        "Parent_Did": 340000,
        "Name": "宿州市",
        "Short_Name": "宿州",
        "Longitude": 116.984,
        "Latitude": 33.6339,
        "Level": 2,
        "Sort": 13,
        "Status": 1,
        "Id": 15197
    },
    {
        "Did": 532600,
        "Parent_Did": 530000,
        "Name": "文山壮族苗族自治州",
        "Short_Name": "文山",
        "Longitude": 104.244,
        "Latitude": 23.3695,
        "Level": 2,
        "Sort": 13,
        "Status": 1,
        "Id": 39534
    },
    {
        "Did": 230700,
        "Parent_Did": 230000,
        "Name": "伊春市",
        "Short_Name": "伊春",
        "Longitude": 128.899,
        "Latitude": 47.7248,
        "Level": 2,
        "Sort": 13,
        "Status": 1,
        "Id": 9840
    },
    {
        "Did": 510700,
        "Parent_Did": 510000,
        "Name": "绵阳市",
        "Short_Name": "绵阳",
        "Longitude": 104.742,
        "Latitude": 31.464,
        "Level": 2,
        "Sort": 13,
        "Status": 1,
        "Id": 33147
    },
    {
        "Did": 420600,
        "Parent_Did": 420000,
        "Name": "襄阳市",
        "Short_Name": "襄阳",
        "Longitude": 112.144,
        "Latitude": 32.0424,
        "Level": 2,
        "Sort": 13,
        "Status": 1,
        "Id": 24199
    },
    {
        "Did": 620600,
        "Parent_Did": 620000,
        "Name": "武威市",
        "Short_Name": "武威",
        "Longitude": 102.635,
        "Latitude": 37.93,
        "Level": 2,
        "Sort": 13,
        "Status": 1,
        "Id": 42637
    },
    {
        "Did": 411500,
        "Parent_Did": 410000,
        "Name": "信阳市",
        "Short_Name": "信阳",
        "Longitude": 114.075,
        "Latitude": 32.1233,
        "Level": 2,
        "Sort": 13,
        "Status": 1,
        "Id": 22954
    },
    {
        "Did": 211200,
        "Parent_Did": 210000,
        "Name": "铁岭市",
        "Short_Name": "铁岭",
        "Longitude": 123.844,
        "Latitude": 42.2906,
        "Level": 2,
        "Sort": 13,
        "Status": 1,
        "Id": 7342
    },
    {
        "Did": 350000,
        "Parent_Did": 0,
        "Name": "福建省",
        "Short_Name": "福建",
        "Longitude": 119.306,
        "Latitude": 26.0753,
        "Level": 1,
        "Sort": 13,
        "Status": 1,
        "Id": 15792
    },
    {
        "Did": 430800,
        "Parent_Did": 430000,
        "Name": "张家界市",
        "Short_Name": "张家界",
        "Longitude": 110.48,
        "Latitude": 29.1274,
        "Level": 2,
        "Sort": 13,
        "Status": 1,
        "Id": 26563
    },
    {
        "Did": 370700,
        "Parent_Did": 370000,
        "Name": "潍坊市",
        "Short_Name": "潍坊",
        "Longitude": 119.107,
        "Latitude": 36.7093,
        "Level": 2,
        "Sort": 13,
        "Status": 1,
        "Id": 19653
    },
    {
        "Did": 469036,
        "Parent_Did": 460000,
        "Name": "琼中黎族苗族自治县",
        "Short_Name": "琼中",
        "Longitude": 109.84,
        "Latitude": 19.0356,
        "Level": 2,
        "Sort": 13,
        "Status": 1,
        "Id": 31451
    },
    {
        "Did": 654200,
        "Parent_Did": 650000,
        "Name": "塔城地区",
        "Short_Name": "塔城",
        "Longitude": 82.9857,
        "Latitude": 46.7463,
        "Level": 2,
        "Sort": 13,
        "Status": 1,
        "Id": 45787
    },
    {
        "Did": 450400,
        "Parent_Did": 450000,
        "Name": "梧州市",
        "Short_Name": "梧州",
        "Longitude": 111.298,
        "Latitude": 23.4748,
        "Level": 2,
        "Sort": 13,
        "Status": 1,
        "Id": 30192
    },
    {
        "Did": 710300,
        "Parent_Did": 710000,
        "Name": "台南市",
        "Short_Name": "台南",
        "Longitude": 121.509,
        "Latitude": 25.0443,
        "Level": 2,
        "Sort": 14,
        "Status": 1,
        "Id": 46098
    },
    {
        "Did": 450900,
        "Parent_Did": 450000,
        "Name": "玉林市",
        "Short_Name": "玉林",
        "Longitude": 110.154,
        "Latitude": 22.6314,
        "Level": 2,
        "Sort": 14,
        "Status": 1,
        "Id": 30491
    },
    {
        "Did": 430200,
        "Parent_Did": 430000,
        "Name": "株洲市",
        "Short_Name": "株洲",
        "Longitude": 113.152,
        "Latitude": 27.8358,
        "Level": 2,
        "Sort": 14,
        "Status": 1,
        "Id": 25411
    },
    {
        "Did": 371000,
        "Parent_Did": 370000,
        "Name": "威海市",
        "Short_Name": "威海",
        "Longitude": 122.116,
        "Latitude": 37.5097,
        "Level": 2,
        "Sort": 14,
        "Status": 1,
        "Id": 20038
    },
    {
        "Did": 410700,
        "Parent_Did": 410000,
        "Name": "新乡市",
        "Short_Name": "新乡",
        "Longitude": 113.884,
        "Latitude": 35.3026,
        "Level": 2,
        "Sort": 14,
        "Status": 1,
        "Id": 21830
    },
    {
        "Did": 421200,
        "Parent_Did": 420000,
        "Name": "咸宁市",
        "Short_Name": "咸宁",
        "Longitude": 114.329,
        "Latitude": 29.8328,
        "Level": 2,
        "Sort": 14,
        "Status": 1,
        "Id": 24905
    },
    {
        "Did": 210800,
        "Parent_Did": 210000,
        "Name": "营口市",
        "Short_Name": "营口",
        "Longitude": 122.235,
        "Latitude": 40.6674,
        "Level": 2,
        "Sort": 14,
        "Status": 1,
        "Id": 7020
    },
    {
        "Did": 652100,
        "Parent_Did": 650000,
        "Name": "吐鲁番地区",
        "Short_Name": "吐鲁番",
        "Longitude": 89.1841,
        "Latitude": 42.9476,
        "Level": 2,
        "Sort": 14,
        "Status": 1,
        "Id": 44670
    },
    {
        "Did": 441500,
        "Parent_Did": 440000,
        "Name": "汕尾市",
        "Short_Name": "汕尾",
        "Longitude": 115.364,
        "Latitude": 22.7745,
        "Level": 2,
        "Sort": 14,
        "Status": 1,
        "Id": 29076
    },
    {
        "Did": 511300,
        "Parent_Did": 510000,
        "Name": "南充市",
        "Short_Name": "南充",
        "Longitude": 106.083,
        "Latitude": 30.7953,
        "Level": 2,
        "Sort": 14,
        "Status": 1,
        "Id": 34209
    },
    {
        "Did": 360000,
        "Parent_Did": 0,
        "Name": "江西省",
        "Short_Name": "江西",
        "Longitude": 115.892,
        "Latitude": 28.6765,
        "Level": 1,
        "Sort": 14,
        "Status": 1,
        "Id": 17071
    },
    {
        "Did": 340700,
        "Parent_Did": 340000,
        "Name": "铜陵市",
        "Short_Name": "铜陵",
        "Longitude": 117.817,
        "Latitude": 30.9299,
        "Level": 2,
        "Sort": 14,
        "Status": 1,
        "Id": 14540
    },
    {
        "Did": 532800,
        "Parent_Did": 530000,
        "Name": "西双版纳傣族自治州",
        "Short_Name": "西双版纳",
        "Longitude": 100.798,
        "Latitude": 22.0017,
        "Level": 2,
        "Sort": 14,
        "Status": 1,
        "Id": 39633
    },
    {
        "Did": 460300,
        "Parent_Did": 460000,
        "Name": "三沙市",
        "Short_Name": "三沙",
        "Longitude": 112.349,
        "Latitude": 16.831,
        "Level": 2,
        "Sort": 14,
        "Status": 1,
        "Id": 31204
    },
    {
        "Did": 620700,
        "Parent_Did": 620000,
        "Name": "张掖市",
        "Short_Name": "张掖",
        "Longitude": 100.455,
        "Latitude": 38.9329,
        "Level": 2,
        "Sort": 14,
        "Status": 1,
        "Id": 42746
    },
    {
        "Did": 370000,
        "Parent_Did": 0,
        "Name": "山东省",
        "Short_Name": "山东",
        "Longitude": 117.001,
        "Latitude": 36.6758,
        "Level": 1,
        "Sort": 15,
        "Status": 1,
        "Id": 18961
    },
    {
        "Did": 370600,
        "Parent_Did": 370000,
        "Name": "烟台市",
        "Short_Name": "烟台",
        "Longitude": 121.391,
        "Latitude": 37.5393,
        "Level": 2,
        "Sort": 15,
        "Status": 1,
        "Id": 19484
    },
    {
        "Did": 530400,
        "Parent_Did": 530000,
        "Name": "玉溪市",
        "Short_Name": "玉溪",
        "Longitude": 102.544,
        "Latitude": 24.3505,
        "Level": 2,
        "Sort": 15,
        "Status": 1,
        "Id": 38686
    },
    {
        "Did": 511000,
        "Parent_Did": 510000,
        "Name": "内江市",
        "Short_Name": "内江",
        "Longitude": 105.066,
        "Latitude": 29.5871,
        "Level": 2,
        "Sort": 15,
        "Status": 1,
        "Id": 33844
    },
    {
        "Did": 429004,
        "Parent_Did": 420000,
        "Name": "仙桃市",
        "Short_Name": "仙桃",
        "Longitude": 113.454,
        "Latitude": 30.365,
        "Level": 2,
        "Sort": 15,
        "Status": 1,
        "Id": 25142
    },
    {
        "Did": 710400,
        "Parent_Did": 710000,
        "Name": "台中市",
        "Short_Name": "台中",
        "Longitude": 121.509,
        "Latitude": 25.0443,
        "Level": 2,
        "Sort": 15,
        "Status": 1,
        "Id": 46136
    },
    {
        "Did": 440200,
        "Parent_Did": 440000,
        "Name": "韶关市",
        "Short_Name": "韶关",
        "Longitude": 113.592,
        "Latitude": 24.8013,
        "Level": 2,
        "Sort": 15,
        "Status": 1,
        "Id": 28013
    },
    {
        "Did": 340200,
        "Parent_Did": 340000,
        "Name": "芜湖市",
        "Short_Name": "芜湖",
        "Longitude": 118.376,
        "Latitude": 31.3263,
        "Level": 2,
        "Sort": 15,
        "Status": 1,
        "Id": 14226
    },
    {
        "Did": 659003,
        "Parent_Did": 650000,
        "Name": "图木舒克市",
        "Short_Name": "图木舒克",
        "Longitude": 79.078,
        "Latitude": 39.8673,
        "Level": 2,
        "Sort": 15,
        "Status": 1,
        "Id": 46026
    },
    {
        "Did": 411000,
        "Parent_Did": 410000,
        "Name": "许昌市",
        "Short_Name": "许昌",
        "Longitude": 113.826,
        "Latitude": 34.023,
        "Level": 2,
        "Sort": 15,
        "Status": 1,
        "Id": 22229
    },
    {
        "Did": 460200,
        "Parent_Did": 460000,
        "Name": "三亚市",
        "Short_Name": "三亚",
        "Longitude": 109.508,
        "Latitude": 18.2479,
        "Level": 2,
        "Sort": 15,
        "Status": 1,
        "Id": 31191
    },
    {
        "Did": 510400,
        "Parent_Did": 510000,
        "Name": "攀枝花市",
        "Short_Name": "攀枝花",
        "Longitude": 101.716,
        "Latitude": 26.5804,
        "Level": 2,
        "Sort": 16,
        "Status": 1,
        "Id": 32789
    },
    {
        "Did": 341800,
        "Parent_Did": 340000,
        "Name": "宣城市",
        "Short_Name": "宣城",
        "Longitude": 118.758,
        "Latitude": 30.9457,
        "Level": 2,
        "Sort": 16,
        "Status": 1,
        "Id": 15684
    },
    {
        "Did": 420900,
        "Parent_Did": 420000,
        "Name": "孝感市",
        "Short_Name": "孝感",
        "Longitude": 113.927,
        "Latitude": 30.9264,
        "Level": 2,
        "Sort": 16,
        "Status": 1,
        "Id": 24456
    },